Rain ID,Date/Time,Nearest town,State,Latitude,Longitude,Total precipitation
2825,16-02-2008 09:35,BOWRAVILLE,NSW,-30.6317,152.8642,0
2826,18-02-2008 04:45,GLENDOWER MOUNTAIN,NSW,-31.1484,151.2345,0
2827,18-02-2008 05:00,YARROWITCH,NSW,-31.2484,152.0011,0
2828,18-02-2008 06:03,BENDEMEER,NSW,-30.8817,151.1511,0
2829,19-02-2008 03:30,TUGGERANONG,NSW,-35.4317,149.1512,0
2830,19-02-2008 03:30,NEWCASTLE,NSW,-32.9317,151.7845,0
2831,06-03-2008 04:48,OBERON,NSW,-33.6984,149.8679,0
2832,07-03-2008 03:07,LITHGOW,NSW,-33.4817,150.1512,0
2833,07-03-2008 03:31,HIGH RANGE,NSW,-34.3651,150.3179,0
2834,07-03-2008 05:34,ABBOTSBURY,NSW,-33.8651,150.8512,0
2835,29-01-2008 16:00,GUNN POINT,NT,-12.1718,130.9943,166
2836,18-03-2008 18:00,YAMBA,NSW,-29.4317,153.3595,0
2837,20-03-2008 03:30,GRAFTON AIRPORT,NSW,-29.7484,153.0345,0
2838,22-03-2008 06:50,LAKE NEPEAN,NSW,-34.3651,150.5846,0
2839,24-03-2008 08:20,ALBION PARK,NSW,-34.5817,150.7762,0
2840,24-03-2008 12:18,BALGOWNIE,NSW,-34.3901,150.8762,0
2841,24-03-2008 12:58,BARRENGARRY,NSW,-34.7151,150.5346,0
2842,29-03-2008 07:05,ROSSI,NSW,-35.4651,149.5012,0
2843,30-03-2008 08:35,RICHMOND NORTH,NSW,-33.5867,150.7112,0
2844,03-04-2008 08:15,LAKE NEPEAN,NSW,-34.3651,150.5846,0
2845,03-04-2008 12:35,NEWBRIDGE,NSW,-33.5651,149.3679,0
2846,04-04-2008 05:20,CAREYS PEAK,NSW,-32.0484,151.4511,0
2847,04-04-2008 07:00,NUNDLE,NSW,-31.4651,151.1345,0
2848,06-04-2008 01:17,EVANS HEAD,NSW,-29.1151,153.4345,0
2849,06-04-2008 03:30,ROUS RIVER,NSW,-28.2984,153.2678,0
2850,24-04-2008 22:00,NABIAC,NSW,-32.0984,152.3845,0
2851,14-03-2008 04:00,WOOLBROOK,NSW,-30.9651,151.3511,0
2852,24-03-2008 03:00,BOTANY,NSW,-33.9484,151.2012,0
2853,24-03-2008 03:40,CRONULLA,NSW,-34.0484,151.1512,0
2854,24-03-2008 03:40,AUDLEY,NSW,-34.0817,151.0512,0
2855,24-03-2008 04:45,LUCAS HEIGHTS,NSW,-34.0151,151.0012,0
2856,24-03-2008 03:19,LITTLE BAY,NSW,-33.9817,151.2429,0
2857,30-03-2008 09:35,BOX HILL,NSW,-33.6651,150.8846,0
2858,01-01-2008 00:00,KAMBALDA,WA,-31.2025,121.6681,70
2859,12-12-2008 00:00,LATHAM,WA,-29.7567,116.4447,117
2860,21-01-2008 00:00,MINGAH SPRINGS,WA,0,0,183
2861,21-01-2008 00:00,BROOME AIRPORT,WA,-17.9508,122.2336,170
2862,22-01-2008 00:00,EDJUDINA,WA,-29.4153,122.5847,127
2863,24-01-2008 00:00,RAWLINNA Depot,WA,-30.7756,125.44,85
2864,27-01-2008 00:00,LARRAWA,WA,-18.8381,126.5244,85
2865,02-02-2008 00:00,MOUNT MAGNET,WA,-28.0625,117.8481,59
2866,05-02-2008 00:00,MOUNT WINIFRED,WA,-18.0542,126.2817,89
2867,05-11-2008 04:45,PENRITH,NSW,-33.7484,150.7512,0
2868,19-11-2008 03:30,COUCHY CREEK,NSW,-28.2651,153.2845,0
2869,14-10-2008 12:00,CANTERBURY,NSW,-33.9151,151.1179,0
2870,05-11-2008 04:45,CABRAMATTA WEST,NSW,-33.8901,150.9096,0
2871,19-11-2008 12:00,WOOLI WOOLI RIVER,NSW,-29.967,153.1484,0
2872,26-11-2008 03:18,NASHUA,NSW,-28.7317,153.4678,0
2873,01-12-2008 16:10,GOULBURN AIRPORT,NSW,-34.8151,149.7179,0
2874,03-12-2008 04:35,SMALLWOODS CROSSING,NSW,-34.1429,150.4251,0
2875,03-12-2008 05:45,GREYSTANES,NSW,-33.8151,150.9346,0
2876,03-12-2008 05:45,PROSPECT RESERVOIR,NSW,-33.8234,150.8846,0
2877,03-12-2008 05:45,SEVEN HILLS,NSW,-33.7762,150.9429,0
2878,03-12-2008 05:50,TOONGABBIE,NSW,-33.7651,150.9679,0
2879,03-12-2008 05:45,SPRINGWOOD,NSW,-33.6984,150.5679,0
2880,05-12-2008 02:15,DORRIGO,NSW,-30.3317,152.7178,0
2881,05-12-2008 05:00,RICHMOND AERODROME,NSW,-33.5984,150.7679,0
2882,05-12-2008 06:35,JERANGLE,NSW,-35.8817,149.3679,0
2883,05-12-2008 08:30,NEWCASTLE,NSW,-32.9317,151.7845,0
2884,27-04-2008 00:00,EXMOUTH,WA,-21.9569,114.1164,206
2885,26-04-2008 00:00,CORRIGIN,WA,-32.3272,117.8747,83
2886,08-05-2008 00:00,LEARMONTH AERODROME,WA,-22.2317,114.0872,94
2887,06-12-2008 06:08,KINGS LANGLEY,NSW,-33.7484,150.9179,0
2888,06-12-2008 06:08,PARRAMATTA,NSW,-33.8151,151.0012,0
2889,06-12-2008 06:45,MAROOTA,NSW,-33.4567,150.9929,0
2890,18-05-2008 00:00,PEMBERTON,WA,-34.4461,116.0356,82
2891,20-05-2008 00:00,DARDANUP,WA,-33.4003,115.7539,66
2892,21-05-2008 00:00,RIVERDALE,WA,-31.8411,116.6744,81
2893,23-05-2008 00:00,HARVEY CREEK,WA,-28.3484,152.5011,58
2894,06-07-2008 00:00,WORSLEY,WA,-33.3069,116.0067,72
2895,13-07-2008 00:00,LOMBADINA POINT,WA,-16.5386,122.8175,199
2896,22-07-2008 00:00,WILYABRUP,WA,-33.7956,115.0461,52
2897,26-08-2008 00:00,CAPEL RIVER NORTH,WA,-33.6517,115.7514,45
2898,29-08-2008 00:00,DONNYBROOK,WA,-33.5767,115.8214,108
2899,07-12-2008 05:40,BAULKHAM HILLS,NSW,-33.7595,151.0012,0
2900,25-12-2008 05:05,PICTON,NSW,-34.1651,150.6512,0
2901,21-09-2008 00:00,MOUNTAIN BRIDGE,WA,-29.2356,115.0339,68
2902,18-10-2008 00:00,PERTH,WA,-31.9519,115.8586,0
2903,08-11-2008 00:00,ELGEE CLIFFS,WA,-16.9606,127.4564,60
2904,26-11-2008 00:00,GERALDTON,WA,-28.7792,114.6144,0
2905,27-11-2008 00:00,KONDININ,WA,-32.4936,118.2678,39
2906,20-12-2008 00:00,DIGGERS REST,WA,-33.5228,121.9622,121
2907,11-12-2008 00:05,WITTITRIN,NSW,-31.0984,152.6511,0
2908,11-12-2008 01:05,COFFS HARBOUR,NSW,-30.3151,153.1345,0
2909,25-11-2008 03:45,THORA,NSW,-30.4317,152.0345,0
2910,26-11-2008 02:15,UKI,NSW,-28.4234,153.3261,0
2911,01-12-2008 04:30,YARRAS,NSW,-31.4651,152.3345,0
2912,01-12-2008 07:15,BAERAMI,NSW,-32.3817,150.4679,0
2913,04-12-2008 01:40,BOWRAVILLE,NSW,-30.6317,152.8642,0
2914,22-12-2008 04:15,ARALUEN,NSW,-35.6484,149.8179,0
2915,22-12-2008 04:05,ARALUEN,NSW,-35.6484,149.8179,0
2916,23-12-2008 02:35,BUNDANOON,NSW,-34.6556,150.2996,0
2917,24-12-2008 02:45,YARRAS,NSW,-31.4651,152.3345,0
2918,25-12-2008 08:34,MILBRODALE,NSW,-32.6984,151.0095,0
2919,26-12-2008 06:58,TURNERS FLAT,NSW,-31.0151,152.7011,0
2920,26-12-2008 07:20,PILLAR VALLEY,NSW,-29.7651,153.1178,0
2921,31-12-2008 15:20,GLENREAGH,NSW,-30.0484,152.9845,0
2922,31-12-2008 15:20,GOONENGERRY,NSW,-28.5984,153.4345,0
2923,03-12-2008 07:07,TENNANT CREEK,NT,-19.6511,134.1897,0
2924,15-01-2008 07:05,HORSHAM,VIC,-36.7146,142.1981,0
2925,16-01-2008 09:40,MILL PARK,VIC,-37.6728,145.061,0
2926,19-02-2008 07:05,GEELONG,VIC,-38.1502,144.3558,0
2927,15-03-2008 12:30,MYRTLEFORD,VIC,-36.5635,146.7262,0
2928,15-03-2008 08:05,WYNDHAM VALE,VIC,-37.8644,144.6013,0
2929,21-03-2008 03:00,SILVER CREEK,VIC,-36.3787,146.7313,0
2930,21-03-2008 06:15,MOUNT BAW BAW,VIC,-37.8398,146.2726,0
2931,21-03-2008 05:50,BRIGHT,VIC,-36.7306,146.9608,0
2932,21-03-2008 07:30,BEECHWORTH,VIC,-36.3642,146.6879,0
2933,27-03-2008 07:00,GEELONG,VIC,-38.1502,144.3558,0
2934,09-09-2008 04:25,ESSENDON,VIC,-37.7531,144.908,0
2935,09-09-2008 03:30,GLEN FORBES,VIC,-38.4593,145.5444,0
2936,01-12-2008 00:00,MOUNT DELEGATE,VIC,-37.1139,148.8965,0
2937,03-12-2008 06:00,KANIVA,VIC,-36.3779,141.2386,0
2938,05-12-2008 07:00,MANSFIELD,VIC,-37.0579,146.0878,0
2939,06-12-2008 04:00,WANGARATTA,VIC,-36.3565,146.3154,0
2940,06-12-2008 04:00,MOORNGAG,VIC,-36.7566,146.0522,0
2941,06-12-2008 04:00,TATONG,VIC,-36.7242,146.247,0
2942,07-12-2008 04:00,STRATFORD,VIC,-37.9682,147.0797,0
2943,05-12-2008 08:40,CORAL BANK,VIC,-36.6206,147.085,0
2944,06-12-2008 02:30,WALDARA,VIC,-36.3227,146.2814,0
2945,16-12-2008 03:30,Hobart,TAS,-42.89,147.33,20
2946,16-12-2008 05:59,Hobart,TAS,-42.89,147.33,20
2947,10-12-2008 04:30,Brighton,TAS,-42.7,147.26,32
2948,10-04-2008 06:00,PALMERSTON,NT,-12.4808,130.9841,0
2949,01-12-2008 15:00,TINDAL AIRFIELD,NT,-14.5167,132.3667,76
2950,06-01-2008 05:55,CALAMVALE,QLD,-27.6167,153.05,0
2951,06-01-2008 06:05,WATERFORD,QLD,-27.7154,153.1511,0
2952,07-01-2008 09:30,TAROOM,QLD,-25.6404,149.7983,0
2953,22-01-2008 07:20,GATTON,QLD,-27.5612,152.2755,0
2954,23-01-2008 04:50,OAKEY,QLD,-27.434,151.7211,0
2955,23-01-2008 04:00,TOOWOOMBA,QLD,-27.5592,151.9536,0
2956,31-01-2008 06:30,SOUTH YAAMBA,QLD,-23.199,150.4005,0
2957,02-02-2008 12:20,RAVENSHOE,QLD,-17.606,145.483,0
2958,02-02-2008 08:30,RUDD CREEK,QLD,-17.9167,145.2167,0
2959,08-02-2008 09:40,MURRAY UPPER,QLD,-18.1207,145.8028,0
2960,14-03-2008 10:35,INJUNE,QLD,-25.8418,148.5706,0
2961,24-03-2008 08:20,PALEN CREEK,QLD,-28.2842,152.8019,0
2962,26-03-2008 00:00,MOUNT LARCOM,QLD,-23.8104,150.9786,0
2963,26-03-2008 06:00,YEPPOON,QLD,-23.129,150.7444,0
2964,25-03-2008 21:10,LUNDAVRA,QLD,-28.0712,149.9995,0
2965,27-03-2008 08:35,BUNDABERG,QLD,-24.8662,152.3494,0
2966,18-02-2008 22:20,Friendly Beaches,NSW,-42,148.28,44
2967,15-02-2008 05:30,Oatlands,TAS,-42.305,147.571,62
2968,24-01-2008 07:40,St Helens,TAS,-41.34,148.28,23
2969,30-03-2008 03:20,MILES,QLD,-26.6573,150.1897,0
2970,29-03-2008 23:00,PITTSWORTH,QLD,-27.7162,151.6333,0
2971,30-03-2008 00:10,TOOWOOMBA,QLD,-27.5592,151.9536,0
2972,30-03-2008 06:30,TIARO,QLD,-25.7237,152.5836,0
2973,30-03-2008 11:00,THANGOOL,QLD,-24.4868,150.5761,0
2974,06-04-2008 07:00,BRIBIE ISLAND,QLD,-26.95,153.1167,0
2975,13-04-2008 03:39,BOWEN,QLD,-20.0104,148.2416,0
2976,06-11-2008 09:30,LUSCOMBE,QLD,-27.8,153.2,0
2977,18-11-2008 07:00,GOONANEMAN,QLD,-25.4333,152.1167,0
2978,19-11-2008 05:20,SPRING MOUNTAIN,QLD,-27.7204,152.8777,0
2979,19-11-2008 05:55,INALA,QLD,-27.5942,152.9719,0
2980,19-11-2008 06:15,GEEBUNG,QLD,-27.3706,153.0483,0
2981,19-11-2008 06:00,BRISBANE,QLD,-27.4679,153.028,0
2982,05-12-2008 01:30,GOOMBURRA,QLD,-28.044,152.1205,0
2983,05-12-2008 05:20,MOUNT GLORIOUS,QLD,-27.3333,152.7667,0
2984,06-12-2008 07:09,JOHNSTONE RIVER,QLD,-17.5167,146.0667,0
2985,08-12-2008 06:00,CARBROOK,QLD,-27.6734,153.2594,0
2986,08-12-2008 08:30,SEAVIEW MOUNT,QLD,-24.2818,150.9344,0
2987,09-12-2008 09:25,EMU VALE,QLD,-28.229,152.2489,0
2988,09-12-2008 08:40,YANGAN,QLD,-28.1967,152.2119,0
2989,09-12-2008 11:15,EMERALD,QLD,-23.5209,148.1619,0
2990,11-12-2008 02:00,OAKEY,QLD,-27.434,151.7211,0
2991,12-12-2008 10:29,EMERALD,QLD,-23.5209,148.1619,0
2992,12-12-2008 09:57,EMERALD,QLD,-23.5209,148.1619,0
2993,12-12-2008 09:36,EMERALD,QLD,-23.5209,148.1619,0
2994,12-12-2008 09:15,MONTO,QLD,-24.8642,151.1232,0
2995,25-12-2008 06:00,WARWICK,QLD,-28.2153,152.0352,0
2996,29-12-2008 07:50,GIN GIN,QLD,-24.9909,151.9557,0
2997,08-12-2008 10:30,BILOELA,QLD,-24.4003,150.5133,0
2998,11-12-2008 06:00,BALLANDEAN,QLD,-28.8009,151.8427,0
2999,11-12-2008 02:25,SPRINGDALE,QLD,-28.7639,151.6336,0
3000,25-02-2009 09:00,NINGHAN,WA,-30.1653,117.5847,77
3001,30-01-2009 00:00,ELLENDALE,WA,-17.9269,124.8119,83
3002,02-01-2009 05:20,BEN BULLEN,NSW,-33.2151,150.0179,0
3003,04-01-2009 06:00,NOWRA,NSW,-34.8817,150.6012,0
3004,04-01-2009 07:00,BARRENGARRY,NSW,-34.7151,150.5346,0
3005,04-01-2009 06:40,BONYTHON,NSW,-35.4333,149.0833,0
3006,09-01-2009 03:15,MERRIWA,NSW,-32.122,150.3303,0
3007,09-01-2009 06:15,BLACKTOWN,NSW,-33.7706,150.9068,0
3008,09-01-2009 06:15,TOONGABBIE,NSW,-33.7651,150.9679,0
3009,09-01-2009 08:25,ULLADULLA,NSW,-35.3484,150.4679,0
3010,09-01-2009 08:50,NERRIGA,NSW,-35.1317,150.1179,0
3011,19-01-2009 08:15,COFFS HARBOUR AIRPORT,NSW,-30.3151,153.1178,0
3012,19-01-2009 10:55,POTTSVILLE,NSW,-28.3984,153.5511,0
3013,19-01-2009 11:30,KEMPSEY AIRPORT,NSW,-31.0651,152.7678,0
3014,19-01-2009 14:20,MULLUMBIMBY,NSW,-28.5484,153.5011,0
3015,19-01-2009 17:30,CAPE BYRON,NSW,-28.6387,153.6361,0
3016,19-01-2009 00:53,KRAMBACH,NSW,-32.0484,152.2678,0
3017,20-01-2009 04:43,HARRINGTON,NSW,-31.8651,152.6845,0
3018,20-01-2009 05:00,WOOLBROOK,NSW,-30.9651,151.3511,0
3019,20-01-2009 09:27,COLLOMBATTI,NSW,-30.8909,152.7147,0
3020,25-02-2009 08:25,WICKEPIN,WA,-32.7803,117.5053,0
3021,26-02-2009 00:00,KONDININ,WA,-32.4936,118.2678,28
3022,28-02-2009 00:00,MOUNT NEWMAN,WA,-28.5008,121.09,100
3023,02-03-2009 00:00,YAKABINDIE,WA,-27.5756,120.5297,108
3024,03-03-2009 00:00,Faraway Bay,WA,0,0,110
3025,03-03-2009 00:00,MINGAH SPRINGS,WA,-24.9472,118.7106,121
3026,07-03-2009 00:00,PARABURDOO,WA,-23.1958,117.7039,56
3027,09-03-2009 00:00,Kimberley,WA,0,0,77
3028,24-02-2009 00:00,TARINA WELL,WA,-26.0075,116.0339,71
3029,31-03-2009 00:00,ONSLOW,WA,-21.6881,115.1353,106
3030,10-04-2009 00:00,PORONGURUP ESTATE,WA,-34.6817,117.8419,88
3031,24-01-2009 03:15,Murrays Flat (Wollondilly River),NSW,-34.7217,149.7933,0
3032,24-01-2009 03:01,Orange (Bloodwood Winery),NSW,-33.15,149.2,0
3033,24-01-2009 06:40,Jingera (Hillside),NSW,-35.7833,149.4167,0
3034,25-01-2009 04:25,Wooli (Browns Knob),NSW,-29.9125,153.1275,0
3035,25-01-2009 08:40,Jiggi (Gwynne St),NSW,-28.676,153.1538,0
3036,26-01-2009 02:01,Inverell,NSW,-29.7752,151.0819,0
3037,27-01-2009 00:00,Pokolbin,NSW,-32.8126,151.3043,0
3038,27-01-2009 02:00,Tangory Mountain,NSW,-32.5553,151.379,0
3039,27-01-2009 01:20,Molong,NSW,-32.9892,148.9318,0
3040,27-01-2009 02:05,Bylong,NSW,-32.471,150.1059,0
3041,27-01-2009 02:40,Gresford,NSW,-32.4266,151.5376,0
3042,27-01-2009 03:00,Nundle,NSW,-31.46,151.13,0
3043,27-01-2009 03:30,Narrabri (Mt Kaputa),NSW,-30.2838,150.1666,0
3044,27-01-2009 05:10,Tingha,NSW,-29.9315,151.2945,0
3045,27-01-2009 05:30,Inverell,NSW,-29.7752,151.0819,0
3046,27-01-2009 06:05,Inverell,NSW,-29.605,151.267,0
3047,01-02-2009 01:00,Nabiac (near Foster),NSW,-32.0873,152.3748,0
3048,01-02-2009 12:50,Wooli,NSW,-29.8919,153.2648,0
3049,12-02-2009 04:55,Gurya,NSW,-29.9465,151.6066,0
3050,25-02-2009 07:25,Ulan,NSW,-32.2807,149.741,0
3051,26-02-2009 07:50,Comboyne,NSW,-31.6061,152.4669,0
3052,08-03-2009 08:25,Woolgoolga,NSW,-30.1052,153.1956,0
3053,09-03-2009 04:30,Grafton,NSW,-29.7583,153.0297,0
3054,11-03-2009 08:30,Guilford,NSW,-33.8661,150.9937,0
3055,13-03-2009 23:00,Clarencetown,NSW,-32.5584,151.8043,0
3056,13-03-2009 01:00,Boambee (Coffs Harbour),NSW,-30.3242,153.0491,0
3057,13-03-2009 01:00,Toormina (Coffs Harbour),NSW,-30.3525,153.0761,0
3058,13-03-2009 01:00,Sawtell (Coffs Harbour),NSW,-30.3667,153.0953,0
3059,13-03-2009 01:30,Bray Street (Coffs Harbour),NSW,-30.2825,153.1219,0
3060,18-03-2009 18:20,Bukkulla (N of Inverell,NSW,-29.5045,151.1293,0
3061,24-03-2009 02:25,Coonabarabran AWS,NSW,-31.333,149.2699,0
3062,24-03-2009 07:35,Wyong (Kangy Angy - Ourimbah ck),NSW,-33.3319,151.3833,0
3063,30-03-2009 08:00,S. of Newcastle,NSW,0,0,0
3064,06-04-2009 04:45,Macquarie College - Newcastle,NSW,-32.9219,151.6514,0
3065,21-04-2009 22:45,Tocal AWS,NSW,-32.6296,151.5919,0
3066,28-04-2009 08:25,Cofs Harbour (Gundagai St),NSW,-30.2939,153.1094,0
3067,29-04-2009 20:55,Wooli River,NSW,-29.8919,153.2648,0
3068,02-05-2009 08:20,Wooli River,NSW,-29.8919,153.2648,0
3069,23-01-2009 14:30,GUNN POINT,NT,-12.1718,130.9943,188
3070,08-06-2009 12:30,KULGERA AIRSTRIP,NT,-25.8431,133.2929,0
3071,09-01-2009 10:30,ALICE SPRINGS,NT,-23.6994,133.8807,0
3072,20-02-2009 00:00,HUMPTY DOO,NT,-12.5842,131.1258,0
3073,03-01-2009 06:00,PORT CAMPBELL,VIC,-38.6208,142.9953,0
3074,07-01-2009 06:20,BLACKBURN,VIC,-37.8203,145.1537,0
3075,07-01-2009 10:08,TYABB,VIC,-38.2615,145.1849,0
3076,07-01-2009 10:08,CERES,VIC,-38.1735,144.2705,0
3077,09-01-2009 08:00,STRATHDALE,VIC,-36.7616,144.3169,0
3078,09-01-2009 08:00,MAIDEN GULLY,VIC,-36.7413,144.2157,0
3079,09-01-2009 08:00,BRIDGEWATER,VIC,-36.6032,143.9436,0
3080,09-01-2009 08:00,Bendigo,VIC,-36.6032,143.9436,0
3081,09-01-2009 08:00,NORTH BENDIGO,VIC,-36.7455,144.2828,0
3082,09-01-2009 08:00,LOCKWOOD SOUTH,VIC,-36.9227,144.1221,0
3083,21-01-2009 07:00,MOUNT BULLER,VIC,-37.1466,146.4246,0
3084,17-02-2009 04:30,MCKILLOP BRIDGE,VIC,-37.0857,148.412,0
3085,23-02-2009 07:00,MYRTLEFORD,VIC,-36.5599,146.7218,0
3086,28-02-2009 17:00,MARRARA,NT,-12.404,130.9104,89
3087,13-02-2009 06:45,DARWIN INTERNATIONAL AIRPORT,NT,-12.4101,130.8768,0
3088,27-03-2009 00:00,PARAP,NT,-12.434,130.8448,0
3089,13-02-2009 06:30,Ballarat,VIC,-37.5632,143.8554,44
3090,11-10-2009 06:30,Balwyn,VIC,-37.8131,145.0818,0
3091,10-10-2009 08:15,YARRA GLEN,VIC,-37.6631,145.3708,0
3092,13-10-2009 04:30,BRAYS CREEK,NSW,-28.4067,153.1928,0
3093,01-11-2009 03:50,NUMURKAH,VIC,-36.0943,145.436,0
3094,04-11-2009 07:00,MURRAYVILLE,VIC,-35.2663,141.1792,82
3095,05-11-2009 02:15,BULLA,VIC,-37.6377,144.8036,0
3096,05-11-2009 03:15,FLEMINGTON,VIC,-37.7724,144.929,0
3097,05-11-2009 02:30,KEILOR,VIC,-37.6986,144.8237,0
3098,12-11-2009 04:00,GLENCAIRN,VIC,-37.514,146.5474,62
3099,08-12-2009 06:00,CARBOOR UPPER,VIC,-36.6418,146.5453,95
3100,08-12-2009 06:26,EUROBIN,VIC,-36.6404,146.8624,85
3101,08-12-2009 06:15,OVENS,VIC,-36.5906,146.7597,0
3102,17-06-2009 00:00,STEEP POINT,WA,-26.1431,113.1589,132
3103,17-06-2009 00:00,TAMALA,WA,-26.6981,113.7158,49
3104,17-06-2009 00:00,USELESS LOOP,WA,-26.1322,113.4167,20
3105,18-06-2009 00:00,USELESS LOOP,WA,-26.1322,113.4167,109
3106,18-06-2009 00:00,SHARK BAY,WA,-25.4744,113.4878,59
3107,18-06-2009 00:00,CAREY DOWNS,WA,-25.6114,115.4614,57
3108,18-06-2009 00:00,CARNARVON,WA,-24.8903,113.66,57
3109,17-05-2009 00:00,JINDONG,WA,-33.7411,115.2417,84
3110,17-05-2009 00:00,ACTON PARK,WA,-33.7611,115.3708,79
3111,17-05-2009 00:00,CHAPMAN HILL,WA,-33.8056,115.3331,78
3112,17-05-2009 00:00,CHAPMAN HILL,WA,-33.7783,115.3272,77
3113,17-05-2009 00:00,WHICHER RANGE,WA,-33.8275,115.3889,75
3114,17-05-2009 00:00,Aston Downs Alert,WA,0,0,68
3115,17-05-2009 00:00,LUDLOW,WA,-33.6097,115.4867,62
3116,17-05-2009 00:00,Capel North,WA,0,0,60
3117,17-05-2009 00:00,CAPE LEEUWIN,WA,-34.3767,115.1358,60
3118,17-05-2009 00:00,CAPE NATURALISTE,WA,-33.5314,115.0025,58
3119,18-05-2009 00:00,MARGARET RIVER,WA,-33.955,115.075,107
3120,18-05-2009 00:00,WANNEROO,WA,-31.7472,115.8031,80
3121,18-05-2009 00:00,BUSSELTON SHIRE,WA,-33.6481,115.3458,80
3122,18-05-2009 00:00,KARRAGULLEN,WA,-32.0908,116.1217,61
3123,18-05-2009 00:00,BICKLEY,WA,-32.0081,116.0906,61
3124,18-05-2009 00:00,HUNTLY,WA,-32.5894,116.0625,60
3125,18-05-2009 00:00,ROLEYSTONE,WA,-32.1131,116.0739,57
3126,18-05-2009 00:00,GOSNELLS,WA,-32.0719,115.9947,56
3127,19-06-2009 19:45,JINDONG,WA,-33.7411,115.2417,0
3128,03-07-2009 00:21,WILYABRUP,WA,-33.7956,115.0461,0
3129,19-07-2009 10:32,MYALUP,WA,-33.1019,115.6939,0
3130,19-07-2009 07:31,PEMBERTON,WA,-34.4461,116.0356,0
3131,19-07-2009 00:00,MYALUP,WA,-33.1019,115.6939,91
3132,19-07-2009 00:00,PEMBERTON,WA,-34.4461,116.0356,83
3133,19-07-2009 00:00,ERADU,WA,-28.6958,115.0461,63
3134,06-11-2009 00:00,KONNONGORRING,WA,-31.0425,116.7744,62
3135,06-11-2009 00:00,BERRING,WA,-31.2639,116.91,60
3136,06-11-2009 00:00,MUKINBUDIN,WA,-30.9142,118.2067,58
3137,08-11-2009 00:00,,WA,0,0,0
3138,05-12-2009 00:00,LAKE GRACE,WA,-33.1003,118.4608,75
3139,31-07-2009 00:00,CAPEL RIVER NORTH,WA,-33.6517,115.7514,118
3140,31-07-2009 00:00,COOROW WEST,WA,0,0,95
3141,31-07-2009 00:00,BINDI BINDI,WA,-30.6308,116.3647,94
3142,31-07-2009 00:00,JARRAHWOOD,WA,-33.7961,115.6672,93
3143,31-07-2009 00:00,SOMME CREEK,WA,0,0,90
3144,31-07-2009 00:00,WARRADARGE EAST,WA,0,0,89
3145,31-07-2009 00:00,WATHEROO,WA,-30.2994,116.0592,88
3146,31-07-2009 00:00,BRIDGETOWN,WA,-33.9581,116.1408,86
3147,31-07-2009 00:00,WONGAN HILLS,WA,-30.8936,116.7186,86
3148,31-07-2009 00:00,ENEABBA,WA,-29.8206,115.2708,72
3149,31-07-2009 00:00,BALLIDU,WA,-30.5961,116.7717,70
3150,31-07-2009 00:00,BERKSHIRE VALLEY,WA,-30.5481,116.1358,68
3151,31-07-2009 00:00,JINDONG,WA,-33.7411,115.2417,68
3152,31-07-2009 00:00,CADOUX,WA,-30.7683,117.135,66
3153,31-07-2009 00:00,EJANDING,WA,-31.0147,117.1103,65
3154,31-07-2009 00:00,BUSSELTON AIRFIELD,WA,-33.6761,115.3342,64
3155,31-07-2009 00:00,GREENBUSHES,WA,-33.8617,116.0428,64
3156,31-07-2009 00:00,YOONGARILLUP,WA,-33.7153,115.4267,61
3157,31-07-2009 00:00,COWCOWING,WA,-30.9967,117.4514,60
3158,31-07-2009 00:00,DALWALLINU,WA,-30.2797,116.6611,59
3159,31-07-2009 00:00,KOORDA AERO,WA,0,0,59
3160,31-07-2009 00:00,JURIEN BAY,WA,-30.2972,115.0417,58
3161,31-07-2009 00:00,DONNYBROOK,WA,-33.5767,115.8214,58
3162,31-07-2009 00:00,BARBERTON,WA,-30.7369,116.0286,58
3163,31-07-2009 00:00,YORKRAKINE,WA,-31.4897,117.5536,58
3164,31-07-2009 00:00,KONDUT,WA,-30.7106,116.7736,57
3165,31-07-2009 00:00,VASSE HWY CB3,WA,0,0,57
3166,31-07-2009 00:00,BARBERTON EAST,WA,0,0,56
3167,31-07-2009 00:00,JURENDINE,WA,-31.5767,116.7461,56
3168,31-07-2009 00:00,ROCKY GULLY,WA,-34.5103,117.0264,55
3169,31-07-2009 00:00,YORKRAKINE TBRG,WA,0,0,55
3170,31-07-2009 00:00,PAYNEDALE ALERT,WA,0,0,55
3171,31-07-2009 00:00,CAPE NATURALISTE,WA,-33.5314,115.0025,55
3172,31-07-2009 00:00,COOROW,WA,-29.8822,116.0225,54
3173,31-07-2009 00:00,BENCUBBIN,WA,-30.8108,117.8603,54
3174,31-07-2009 00:00,MUKINBUDIN AERO,WA,0,0,54
3175,31-07-2009 00:00,WIALKI,WA,-30.4767,118.1211,54
3176,31-07-2009 00:00,EJANDING,WA,-31.0147,117.1103,54
3177,31-07-2009 00:00,WYALKATCHEM,WA,-31.1772,117.3833,52
3178,31-07-2009 00:00,PORONGURUP SOUTH,WA,0,0,51
3179,31-07-2009 00:00,NARRIKUP WEST,WA,0,0,50
3180,31-07-2009 00:00,MINDALLA,WA,0,0,76
3181,31-07-2009 00:00,ANRO,WA,0,0,75
3182,31-07-2009 00:00,HILL RIVER SPRING,WA,-30.2719,115.3717,63
3183,31-07-2009 00:00,NARDY ROAD,WA,0,0,62
3184,31-07-2009 00:00,STYLES TOWER,WA,0,0,62
3185,31-07-2009 00:00,RAVENSCLIFFE ALERT,WA,0,0,59
3186,31-07-2009 00:00,NEWBICUP,WA,0,0,58
3187,31-07-2009 00:00,HAPPY VALLEY,WA,-33.6964,115.6256,58
3188,31-07-2009 00:00,LONG POOL,WA,-33.6964,115.6256,54
3189,31-07-2009 00:00,AMERY ACRES,WA,0,0,50
3190,31-07-2009 00:00,WESTBOURNE,WA,-31.9983,116.8594,74
3191,02-07-2009 08:21,WILYABRUP,WA,-33.7956,115.0461,0
3192,02-07-2009 10:21,WILYABRUP,WA,-33.7956,115.0461,0
3193,01-08-2009 00:00,DRAGON ROCKS,WA,-32.8133,119.0328,68
3194,01-08-2009 00:00,HOWATHARRA,WA,-28.5322,114.6347,59
3195,01-08-2009 00:00,SOUTHERN CROSS AIRFIELD,WA,0,0,53
3196,01-08-2009 00:00,AMRISTA PARK,WA,0,0,59
3197,01-08-2009 00:00,YANGEDINE,WA,-32.0308,116.8742,53
3198,01-08-2009 00:00,ARUBIDDY,WA,-31.8092,125.9253,52
3199,01-08-2009 00:00,FORT HILL,WA,0,0,55
3200,06-11-2009 00:00,BEDFORD DOWNS AIRSTRIP,WA,0,0,71
3201,06-11-2009 00:00,SPRING VALLEY,WA,-28.7222,114.7642,123
3202,22-12-2009 00:00,MORAWA AIRPORT,WA,0,0,54
3203,25-06-2009 07:55,MEREWETHER,NSW,-32.9454,151.748,0
3204,03-11-2009 03:00,Kempsey,NSW,-31.0167,152.7167,0
3205,04-11-2009 12:30,Hay,NSW,-34.5412,144.8345,0
3206,05-11-2009 08:05,Canberra,NSW,-35.3,149.1333,0
3207,05-11-2009 08:00,Tuggeranong,NSW,-35.4317,149.1512,0
3208,07-11-2009 12:29,TURNERS FLAT,NSW,-31.0151,152.7011,0
3209,07-11-2009 12:27,TURNERS FLAT,NSW,-31.0151,152.7011,0
3210,08-11-2009 03:00,STANNIFER,NSW,-29.8651,151.2178,0
3211,13-11-2009 03:25,BLACKTOWN,NSW,-33.7651,150.9179,0
3212,13-11-2009 03:25,BAULKHAM HILLS,NSW,-33.7437,150.9873,0
3213,14-11-2009 03:30,YOUNG,NSW,-34.2984,148.3012,0
3214,14-11-2009 03:30,YOUNG,NSW,-34.2984,148.3012,0
3215,14-11-2009 07:55,CASINO AIRPORT,NSW,-28.8817,153.0511,0
3216,28-11-2009 19:20,Grafton,NSW,-29.6817,152.9345,0
3217,29-11-2009 05:30,Repentance Creek,NSW,-28.6317,153.4011,0
3218,29-11-2009 06:10,Byron Bay,NSW,-28.6317,153.6178,0
3219,02-12-2009 08:16,Wooli,NSW,-29.8567,153.2678,0
3220,09-12-2009 08:30,Jilliby,NSW,-33.2484,151.3845,0
3221,09-12-2009 09:00,Grafton,NSW,-29.6817,152.9345,0
3222,10-12-2009 02:15,Stannifer,NSW,-29.8651,151.2178,0
3223,10-12-2009 04:35,Pokolbin,NSW,-32.7984,151.2845,0
3224,15-12-2009 22:30,St Georges Basin,NSW,-35.0984,150.6012,0
3225,15-12-2009 22:00,Vincentia,NSW,-35.0651,150.6846,0
3226,03-12-2009 00:00,WANDIE CREEK,NT,-13.8,132.25,112
3227,16-12-2009 02:15,Rose Bay,NSW,-36.4317,150.0512,0
3228,09-12-2009 16:30,NOONAMAH,NT,-12.6441,131.0917,197
3229,21-12-2009 11:00,ORMISTON GORGE,NT,-23.6167,132.7167,188
3230,21-12-2009 07:25,Bylong,NSW,-32.4401,150.1151,0
3231,24-12-2009 23:40,Fernleigh,NSW,-28.7651,153.5011,0
3232,26-12-2009 05:30,Williamtown,NSW,-32.8151,151.8428,0
3233,26-12-2009 06:50,Nabiac,NSW,-32.0984,152.3845,0
3234,06-11-2009 03:48,Launceston,TAS,-41.4889,147.2326,42
3235,19-01-2009 05:00,MARYBOROUGH,QLD,-25.5375,152.7018,0
3236,19-01-2009 00:00,TRAVESTON,QLD,-26.3198,152.7802,0
3237,22-01-2009 01:44,MACKAY,QLD,-21.1412,149.1858,0
3238,22-01-2009 08:00,GLADSTONE,QLD,-23.8428,151.2555,0
3239,26-01-2009 05:00,YARRAMAN,QLD,-26.8411,151.9841,0
3240,27-01-2009 10:00,WARWICK,QLD,-28.2153,152.0352,0
3241,28-01-2009 04:00,WESTWOOD,QLD,-23.6145,150.1566,0
3242,07-02-2009 20:00,MALANDA,QLD,-17.3551,145.5958,0
3243,21-02-2009 00:20,ELIMBAH,QLD,-27.0125,152.9435,0
3244,09-03-2009 09:00,CHARLEVILLE,QLD,-26.4017,146.2383,0
3245,21-03-2009 04:00,SLACKS CREEK,QLD,-27.6486,153.151,0
3246,21-03-2009 04:11,EIGHT MILE PLAINS,QLD,-27.5817,153.0955,0
3247,21-03-2009 04:12,ROCHEDALE,QLD,-27.5706,153.1241,0
3248,21-03-2009 04:34,BRISBANE-CITY,QLD,-27.4678,153.026,0
3249,21-03-2009 05:12,BRISBANE,QLD,-27.4678,153.028,0
3250,22-03-2009 06:30,UPPER COOMERA,QLD,-27.8833,153.2833,0
3251,22-03-2009 07:30,CANNON HILL,QLD,-27.4734,153.0955,0
3252,22-03-2009 09:37,BRIBIE ISLAND,QLD,-26.95,153.1166,0
3253,04-04-2009 09:20,BOONAH,QLD,-27.9997,152.6816,0
3254,04-04-2009 07:20,KOORALBYN,QLD,-28.0689,152.8205,0
3255,01-05-2009 06:25,CABOOLTURE,QLD,-27.085,152.9513,0
3256,01-05-2009 04:25,CROHAMHURST,QLD,-26.8166,152.8666,0
3257,01-05-2009 05:38,ELIMBAH,QLD,-27.0125,152.9435,0
3258,01-05-2009 04:30,BEACHMERE,QLD,-27.1295,153.0538,0
3259,01-05-2009 05:00,BELLMERE,QLD,-27.1,152.8833,0
3260,01-05-2009 09:35,WOLFFDENE,QLD,-27.7833,153.1666,0
3261,01-05-2009 09:50,CAROLE PARK,QLD,-27.6214,152.9274,0
3262,01-05-2009 08:10,WATERFORD,QLD,-27.7153,153.151,0
3263,01-05-2009 10:10,JIMBOOMBA,QLD,-27.83,153.0313,0
3264,01-05-2009 07:50,CALAMVALE,QLD,-27.6166,153.05,0
3265,01-05-2009 09:50,GREENBANK,QLD,-27.6817,152.9816,0
3266,01-05-2009 10:15,GREENBANK,QLD,-27.6817,152.9816,0
3267,27-09-2009 04:32,TOOWONG,QLD,-27.4817,152.9899,0
3268,24-10-2009 08:30,BLACKWATER,QLD,-23.5759,148.8869,0
3269,28-10-2009 10:00,GAYNDAH,QLD,-25.6245,151.608,0
3270,28-10-2009 10:00,GAYNDAH,QLD,-25.6245,151.608,0
3271,28-10-2009 10:00,GAYNDAH,QLD,-25.6245,151.608,0
3272,28-10-2009 08:10,CHINCHILLA,QLD,-26.7384,150.6283,0
3273,28-10-2009 10:30,BOOYAL,QLD,-25.2098,152.0405,0
3274,28-10-2009 06:00,CHINCHILLA,QLD,-26.7384,150.6283,0
3275,04-11-2009 07:30,killarney,QLD,0,0,0
3276,14-11-2009 07:08,GYMPIE,QLD,-26.19,152.6655,0
3277,15-11-2009 06:45,BUNDABERG,QLD,-24.8661,152.3493,0
3278,15-11-2009 06:30,HERVEY BAY,QLD,-25.29,152.8399,0
3279,15-11-2009 09:10,BENARABY,QLD,-24.002,151.3166,0
3280,16-11-2009 07:46,MORANBAH,QLD,-22.0017,148.0533,0
3281,29-11-2009 07:00,HARRISVILLE,QLD,-27.8275,152.6649,0
3282,29-11-2009 05:00,WARWICK,QLD,-28.2153,152.0352,0
3283,05-11-2009 12:00,KILCOY,QLD,-26.9431,152.5652,0
3284,05-11-2009 11:25,DAYBORO,QLD,-27.197,152.8227,0
3285,01-12-2009 07:30,STANTHORPE,QLD,-28.662,151.9353,0
3286,01-12-2009 04:30,INGLEWOOD,QLD,-28.4161,151.08,0
3287,23-12-2009 06:00,APPLETHORPE,QLD,-28.6181,151.9361,0
3288,03-01-2010 04:50,Landsborough Alert,QLD,-26.48,152.57,0
3289,03-01-2010 04:45,Hume Lane Alert,QLD,-26.5,152.53,0
3292,05-01-2010 08:51,Roxborough Downs TM,QLD,-22.3,138.5,0
3293,08-01-2010 17:50,Mount Isa,QLD,-20.43,139.29,0
3294,29-01-2010 06:05,Round Mountain Reservoir Alert,QLD,-28.04,152.55,0
3295,29-01-2010 06:00,Wamuran Alert,QLD,-27.03,152.51,0
3296,06-02-2010 13:50,Tyungun Alert,QLD,-28.05,153.09,0
3297,06-02-2010 18:05,Benobble Alert,QLD,-27.59,153.09,0
3298,06-02-2010 17:55,Bromfleet Alert,QLD,-27.54,153.06,0
3299,06-02-2010 17:20,Mount Tamborine Alert,QLD,-27.54,153.06,0
3300,06-02-2010 14:45,Oxenford Weir Alert,QLD,-27.54,153.17,0
3301,06-02-2010 14:01,Coomera Shores Alert,QLD,-27.5,153.21,0
3302,06-02-2010 14:10,Numinbah Alert,QLD,-28.09,153.13,0
3303,06-02-2010 14:30,Carrara Alert,QLD,-28,153.22,0
3304,06-02-2010 14:15,Molendinar Alert,QLD,-27.58,153.21,0
3305,06-02-2010 16:30,Beaudesert Alert,QLD,-27.58,152.59,0
3306,12-02-2010 09:55,Mount Garnet Alert,QLD,-17.42,145.08,0
3307,15-02-2010 09:30,Harrisville Alert,QLD,-27.48,152.38,0
3308,15-02-2010 10:00,Churchbank Weir Alert,QLD,-27.46,152.41,0
3309,15-02-2010 13:20,Taroom,QLD,-25.38,149.47,0
3314,16-02-2010 02:20,Brisbane City,QLD,-27.28,153.01,0
3315,16-02-2010 02:50,Mt Cotton West Alert,QLD,-27.36,153.12,0
3316,16-02-2010 02:45,Priestdale Alert,QLD,-27.36,153.11,0
3317,16-02-2010 09:40,Mt Mee Alert,QLD,-27.04,152.46,0
3318,16-02-2010 02:20,East Brisbane Alert,QLD,-27.29,153.03,0
3319,16-02-2010 02:25,Camp Hill Alert,QLD,-27.29,153.04,0
3320,16-02-2010 06:30,Mt Alford Alert,QLD,-28.03,152.34,0
3321,16-02-2010 05:15,Yangan Alert,QLD,-28.12,152.12,0
3322,16-02-2010 15:05,Emu Vale Alert,QLD,-28.13,152.13,0
3323,16-02-2010 06:20,Murrays Bridge Alert,QLD,-28.17,152.06,0
3324,16-02-2010 05:10,Cherrabah Alert,QLD,-28.26,152.05,0
3325,15-02-2010 14:25,Taroom Alert,QLD,-25.38,149.47,0
3326,16-02-2010 11:55,Obi Lookout Alert,QLD,-26.41,152.48,0
3363,23-02-2010 06:04,ALICE SPRINGS AIRPORT,NT,-23.8045,133.9037,61
3366,06-04-2010 21:00,DARWIN INTERNATIONAL AIRPORT,NT,-12.4101,130.8768,70
3367,06-04-2010 21:00,ROYAL DARWIN HOSPITAL,NT,-12.3564,130.8817,138
3368,06-04-2010 06:50,GROOTE EYLANDT AIRPORT,NT,-13.9742,136.4569,112
3377,04-01-2010 06:25,INVERELL,NSW,-29.7817,151.1178,0
3378,05-01-2010 08:00,SPRINGWOOD,NSW,-33.6984,150.5679,0
3379,05-01-2010 07:00,CANOWINDRA,NSW,-33.5651,148.6512,0
3380,06-01-2010 04:20,COONABARABRAN,NSW,-31.2651,149.2679,0
3381,07-01-2010 03:06,WALCHA,NSW,-30.9817,151.5845,0
3382,07-01-2010 04:00,WOOLBROOK,NSW,-30.9651,151.3511,0
3383,14-01-2010 05:50,NUNDLE,NSW,-31.4651,151.1345,0
3384,15-01-2010 04:50,OGUNBIL,NSW,-31.3401,151.2845,0
3385,16-01-2010 02:10,BLACKHEATH,NSW,-33.6317,150.2846,0
3386,16-01-2010 04:30,YARROWITCH,NSW,-31.2484,152.0011,0
3387,27-01-2010 05:24,GOOLMANGAR CREEK,NSW,-28.6484,153.2178,0
3388,27-01-2010 04:55,CASINO AIRPORT,NSW,-28.8817,153.0511,0
3389,27-01-2010 04:15,KELPIE POINT,NSW,-33.8651,150.2512,0
3390,27-01-2010 04:55,ORANGE,NSW,-33.2817,149.1012,0
3391,04-02-2010 00:00,BULLABURRA,NSW,-33.7317,150.4179,0
3392,04-02-2010 00:00,WENTWORTH FALLS,NSW,-33.7151,150.3679,0
3393,05-02-2010 01:30,GOSFORD,NSW,-33.4234,151.3414,0
3394,05-02-2010 07:35,FAULCONBRIDGE,NSW,-33.6984,150.5346,0
3395,05-02-2010 08:30,LAPSTONE,NSW,-33.7734,150.6346,0
3396,06-02-2010 09:25,MULLUMBIMBY,NSW,-28.5484,153.5011,0
3398,12-02-2010 05:00,PARKES,NSW,-33.1317,148.1679,0
3399,12-02-2010 06:20,OBERON,NSW,-33.6984,149.8679,0
3400,12-02-2010 07:25,KANGY ANGY,NSW,-33.3234,151.3845,0
3401,12-02-2010 07:40,WYONG RIVER,NSW,-33.2484,151.3345,0
3402,12-02-2010 08:30,NARARA,NSW,-33.3984,151.3511,0
3403,12-02-2010 09:55,MONA VALE,NSW,-33.6651,151.3012,0
3404,12-02-2010 09:55,HORNSBY,NSW,-33.7017,151.0973,0
3405,12-02-2010 10:10,CHATSWOOD,NSW,-33.7817,151.1679,0
3406,12-02-2010 10:10,OBSERVATORY HILL,NSW,-33.8484,151.2012,0
3407,16-02-2010 16:50,Giru,QLD,-19.3045,147.0641,0
3408,17-02-2010 17:40,Bowen,QLD,-20.0032,148.1216,0
3409,23-02-2010 07:35,27 Mile Garden TM,QLD,-26.0451,146.2502,0
3410,23-02-2010 04:15,CULGOORA,NSW,-30.3151,149.5678,0
3411,31-03-2010 10:45,Atkinson Dam Alert,QLD,-27.2554,152.2751,0
3412,31-03-2010 09:10,Kooralbyn Alert,QLD,-28.0415,152.5121,0
3413,23-02-2010 07:30,WOOLBROOK,NSW,-30.9651,151.3511,0
3414,28-02-2010 05:30,SPRINGWOOD,NSW,-33.6984,150.5679,0
3415,06-03-2010 19:40,Wagga,NSW,-35.1152,147.3679,0
3416,07-03-2010 04:17,YANCO,NSW,-34.5985,146.4179,0
3417,22-03-2010 14:00,YAMBA,NSW,-29.4401,153.3595,0
3418,22-03-2010 14:00,HARWOOD,NSW,-29.4234,153.2428,0
3419,17-06-2010 03:00,TAWONGA SOUTH,VIC,-36.726,147.1478,0
3440,16-01-2010 07:30,GROVE,TAS,-42.982,147.096,33
3441,16-01-2010 06:20,CAPE BRUNY,TAS,-43.497,147.145,37
3442,17-01-2010 07:00,MT. MORRISTON,TAS,-42.163,147.5805,61
3444,10-02-2010 05:56,LAUNCESTON AIRPORT,TAS,-41.545,147.209,22
3445,28-05-2010 04:30,ST MARYS,TAS,-41.581,148.184,158
3446,28-05-2010 04:00,GRAY,TAS,-41.623,148.222,192
3454,17-01-2010 15:30,FERNTREE GULLY,VIC,-37.8855,145.2942,0
3455,31-01-2010 03:10,MARYBOROUGH,VIC,-37.0479,143.7347,0
3456,04-02-2010 05:00,SANDY POINT,VIC,-38.8301,146.1244,0
3457,04-02-2010 05:00,FOSTER,VIC,-38.6558,146.2024,0
3458,09-02-2010 08:00,EAGLEHAWK,VIC,-36.7177,144.249,0
3459,10-02-2010 02:00,MELTON,VIC,-37.6838,144.5834,0
3460,10-02-2010 02:25,STRATH CREEK,VIC,-37.24,145.2176,0
3461,10-02-2010 04:50,MACEDON,VIC,-37.4248,144.5612,0
3462,10-02-2010 05:00,WOODEND,VIC,-37.3591,144.5261,0
3463,10-02-2010 06:00,UPPER GUNDOWRING PUBLIC HALL,VIC,-36.4924,147.0668,0
3464,11-02-2010 05:00,MELTON SOUTH,VIC,-37.7043,144.5702,0
3465,26-02-2010 04:00,BOUNDARY BEND,VIC,-34.7182,143.1437,0
3466,06-03-2010 02:30,EDDINGTON,VIC,-36.9176,143.8678,0
3467,06-03-2010 03:15,MELTON,VIC,-37.6838,144.5834,0
3468,06-03-2010 03:30,KEILOR NORTH,VIC,-37.6815,144.783,0
3469,06-03-2010 03:25,DELAHEY,VIC,-37.721,144.7761,0
3470,06-03-2010 03:50,NORTH MELBOURNE,VIC,-37.7932,144.9382,0
3471,06-03-2010 06:13,LATROBE VALLEY AERODROME,VIC,-38.2122,146.4746,0
3472,06-03-2010 08:00,STRATHBOGIE,VIC,-36.9313,145.8297,0
3473,07-03-2010 05:50,SHEPPARTON,VIC,-36.3827,145.3968,0
3474,07-03-2010 06:04,MANGALORE,VIC,-36.9577,145.1664,0
3475,07-03-2010 06:00,MURCHISON,VIC,-36.6243,145.1195,0
3476,07-03-2010 08:00,MILL PARK,VIC,-37.6728,145.061,0
3478,20-04-2010 05:00,MOUNT ELIZA,VIC,-38.1755,145.1071,125
3479,20-04-2010 05:00,MOUNT ELIZA,VIC,-38.1755,145.1071,0
3481,07-03-2010 07:30,WYNDHAM VALE,VIC,-37.8644,144.6013,0
3482,06-03-2010 03:05,BLACKBURN,VIC,-37.8203,145.1537,0
3483,06-03-2010 04:00,MOUNT WAVERLEY,VIC,-37.8776,145.1273,0
3484,06-03-2010 04:30,FERNY CREEK,VIC,-37.8727,145.3446,0
3485,06-03-2010 04:00,RICHMOND,VIC,-37.8204,144.9958,0
3486,06-03-2010 04:00,EAST MALVERN,VIC,-37.8784,145.0681,0
3487,06-03-2010 04:15,BORONIA,VIC,-37.8638,145.2856,0
3488,06-03-2010 04:10,MOUNT WAVERLEY,VIC,-37.8776,145.1273,0
3489,06-03-2010 03:30,MELBOURNE,VIC,-37.8436,144.974,0
3490,06-03-2010 03:30,GREEN GULLY,VIC,-36.6718,143.671,0
3491,06-03-2010 04:18,CHADSTONE CENTRE,VIC,-37.8876,145.0793,0
3492,06-03-2010 03:30,CARLTON,VIC,-37.8036,144.9588,0
3493,06-03-2010 02:00,ALTONA MEADOWS,VIC,-37.877,144.7806,0
3494,06-03-2010 04:30,HEATHMONT,VIC,-37.8316,145.2409,0
3495,06-03-2010 03:40,MALVERN EAST,VIC,-37.8792,145.0579,0
3496,06-03-2010 02:00,NEWPORT,VIC,-37.8455,144.8838,38
3497,06-03-2010 04:30,GLEN WAVERLEY,VIC,-37.8809,145.1636,34
3498,06-03-2010 04:30,CARLTON,VIC,-37.8036,144.9588,0
3499,06-03-2010 03:16,NORMAN AINSWORTH RESERVE,VIC,-37.7881,144.7991,0
3500,06-03-2010 03:15,KYNETON,VIC,-37.2494,144.4519,0
3501,06-03-2010 04:10,GLEN WAVERLEY,VIC,-37.8809,145.1636,0
3503,18-08-2010 11:00,WARRACKNABEAL,VIC,-36.2528,142.3947,0
3504,18-08-2010 11:00,WEDDERBURN,VIC,-36.4199,143.6111,0
3505,09-09-2010 06:45,ALLANSFORD,VIC,-38.3873,142.5893,0
3506,09-02-2010 09:00,MUNGLINUP,WA,-33.7078,120.8647,66
3507,21-03-2010 09:00,MOUNT MAGNET,WA,-28.0625,117.8481,57
3508,22-03-2010 16:00,JARRAHDALE,WA,-32.3375,116.0608,57
3509,03-04-2010 04:30,KAMBALDA,WA,-31.2136,121.6244,0
3510,14-04-2010 09:00,COWARAMUP,WA,-33.8517,115.095,54
3511,13-05-2010 09:00,NEWDEGATE AGRICULTURAL RESEARCH STATION,WA,-33.1133,118.8339,84
3512,16-05-2010 09:00,NAPIER DOWNS,WA,-17.3314,124.8175,190
3513,19-05-2010 09:00,LOMBADINA POINT,WA,-16.5386,122.8175,166
3514,27-05-2010 09:00,FOREST GROVE,WA,-34.0811,115.1331,77
3515,22-03-2010 15:30,MOODIARRUP,WA,-33.6208,116.8197,81
3516,22-03-2010 15:30,WANNEROO,WA,-31.7472,115.8031,67
3517,22-03-2010 15:30,PINGELLY,WA,-32.5342,117.0864,79
3518,08-07-2010 15:30,BADGINGARRA,WA,-30.3986,115.5542,65
3532,02-02-2010 07:00,BUTE,SA,-33.8658,138.0081,0
3533,10-02-2010 04:10,ROWLAND FLAT,SA,-34.5877,138.9291,0
3534,11-02-2010 10:15,ARCOONA SADDLE,SA,-30.4231,139.0335,0
3535,13-02-2010 03:00,MOOMBA,SA,-28.0916,140.191,119
3536,27-02-2010 00:00,ANDAMOOKA,SA,-30.4484,137.1674,45
3537,07-03-2010 18:00,KADINA RAILWAY STATION,SA,-33.965,137.7129,69
3538,06-04-2010 22:08,ADELAIDE AIRPORT,SA,-34.944,138.531,0
3539,06-04-2010 19:00,CRAFERS,SA,-34.9968,138.703,60
3540,08-04-2010 11:00,ROXBY DOWNS,SA,-30.5618,136.8984,0
3541,09-04-2010 22:00,LEIGH CREEK,SA,-30.6011,138.4292,0
3542,20-04-2010 04:00,ANDAMOOKA,SA,-30.4484,137.1674,38
3543,20-04-2010 04:30,OLYMPIC DAM,SA,-30.4557,136.9021,0
3544,20-04-2010 07:30,BALUMBAH,SA,-33.2323,136.3226,0
3545,20-04-2010 05:30,TARLEE,SA,-34.2716,138.7713,0
3546,20-04-2010 06:30,WHYTE YARCOWIE,SA,-33.2288,138.8863,0
3548,20-04-2010 05:30,MAYNARDS WELL,SA,-30.6114,138.6897,42
3549,20-03-2011 23:00,BLACKBUTT,NSW,-34.5706,150.8429,0
3550,11-03-2011 03:35,SOUTH TAMWORTH,NSW,-31.1095,150.9147,0
3551,28-02-2011 08:15,BROKEN HILL,NSW,-31.9652,141.4513,0
3552,02-02-2011 09:30,BURRA,NSW,-35.5484,149.2179,0
3553,19-01-2011 06:20,NAMBUCCA HEADS,NSW,-30.6415,152.9906,0
3554,22-01-2011 15:05,WINDRADYNE,NSW,-33.404,149.5457,0
3555,22-02-2011 01:20,CANOBOLAS,NSW,-33.3317,148.9846,0
3556,11-12-2010 01:30,BALLINA,NSW,-28.8317,153.5345,0
3558,02-12-2010 15:00,BURRA,NSW,-35.5484,149.2179,0
3559,26-11-2010 03:30,BOWRAL,NSW,-34.4817,150.4179,0
3560,05-11-2010 01:33,BULLARAH,NSW,-29.583,149.2167,0
3561,20-03-2011 06:00,BARGO,NSW,-34.2984,150.5846,0
3562,31-03-2011 21:45,Mackay,QLD,-21.16,149.2,0
3563,19-09-2010 20:55,Mackay,QLD,-21.12,149.2,0
3564,24-10-2010 02:30,GOONENGERRY,NSW,-28.6151,153.4345,0
3566,19-09-2010 20:55,MACKAY,QLD,-21.1432,149.183,0
3567,28-09-2010 03:45,BEAUDESERT,QLD,-27.9881,152.9958,0
3568,28-09-2010 03:45,BEAUDESERT,QLD,-27.9881,152.9958,0
3569,28-09-2010 04:30,HATTON VALE,QLD,-27.5615,152.4761,0
3570,28-09-2010 04:30,HATTON VALE,QLD,-27.5615,152.4761,0
3571,28-09-2010 05:30,BELLMERE,QLD,-27.1,152.8833,0
3572,28-09-2010 05:45,DEAGON,QLD,-27.3284,153.06,0
3573,28-09-2010 05:35,BUNJURGEN,QLD,-28.0395,152.6172,0
3574,28-09-2010 11:00,BELL,QLD,-26.9095,151.4411,0
3575,12-04-2011 17:10,INNISFAIL,QLD,-17.524,146.0311,0
3576,29-09-2010 06:20,Collinsville,QLD,-20.6,148.2,0
3577,08-11-2010 05:50,CABRAMATTA,NSW,-33.8984,150.9346,0
3578,28-09-2010 17:10,INNISFAIL,QLD,-17.5226,146.0297,0
3579,09-11-2010 06:00,TUGRABAKH,NSW,-31.9651,151.9845,0
3580,05-10-2010 07:20,STANTHORPE,QLD,-28.662,151.9353,0
3581,08-10-2010 01:00,MERMAID BEACH,QLD,-28.05,153.4333,0
3582,07-10-2010 14:40,BROWNS PLAINS,QLD,-27.6651,153.0594,0
3583,07-10-2010 16:30,NINGI,QLD,-27.0673,153.1047,0
3584,07-10-2010 15:40,TOOMBUL,QLD,-27.4167,153.05,0
3585,07-10-2010 15:00,CALAMVALE,QLD,-27.6167,153.05,0
3586,07-10-2010 15:30,BULIMBA,QLD,-27.45,153.0583,0
3587,08-10-2010 14:20,TEWANTIN,QLD,-26.3917,153.0386,0
3588,08-10-2010 15:45,NOOSA HEADS,QLD,-26.387,153.0913,0
3589,10-11-2010 04:13,TUGRABAKH,NSW,-31.9651,151.9845,0
3590,16-11-2010 04:10,BOONANGHI,NSW,-31.0817,152.6178,0
3591,11-10-2010 04:35,CABOONBAH,QLD,-27.1401,152.4761,0
3592,11-10-2010 01:40,SOMERSET DAM,QLD,-27.1151,152.5427,0
3593,15-10-2010 14:30,TIARO,QLD,-25.7237,152.5836,0
3594,28-10-2010 05:00,HERSTON,QLD,-27.4484,153.0233,0
3595,28-10-2010 05:00,WINDSOR,QLD,-27.4345,153.0316,0
3596,11-11-2010 01:40,SOMERSET DAM,QLD,-27.1151,152.5427,0
3597,11-11-2010 01:40,HALIFAX,QLD,-18.5829,146.3178,0
3598,12-11-2010 03:50,MOUNT COOLON,QLD,-21.3087,147.3361,0
3599,14-11-2010 06:05,RUDD CREEK,QLD,-17.9167,145.2167,0
3600,14-11-2010 09:45,KURUMBUL,QLD,-28.6151,150.5544,0
3601,18-11-2010 09:20,CABOOLTURE,QLD,-27.0851,152.9513,0
3602,23-11-2010 16:45,BARCALDINE,QLD,-23.5557,145.2889,123
3603,30-11-2010 06:30,ROMA,QLD,-26.5632,148.8053,0
3604,30-11-2010 06:45,EAGLEFIELD,QLD,-21.4676,147.79,0
3605,30-11-2010 07:30,TULLY,QLD,-17.9312,145.9242,0
3606,02-12-2010 10:05,PENTLAND,QLD,-20.5229,145.3992,0
3607,05-12-2010 00:22,MOUNT COTTON,QLD,-27.6167,153.2167,0
3608,21-11-2010 06:00,TIBOOBURRA,NSW,-29.4152,142.0346,57
3609,21-11-2010 03:30,COBAR,NSW,-31.4985,145.8346,0
3610,26-11-2010 03:10,BOWRAL,NSW,-34.4817,150.4179,73
3611,02-12-2010 08:53,CANBERRA AIRPORT,NSW,-35.3167,149.2,0
3612,02-12-2010 08:53,WAGGA WAGGA,NSW,-35.1152,147.3679,0
3613,02-12-2010 21:00,PARKES AIRPORT,NSW,-33.1317,148.2346,0
3614,02-12-2010 23:15,MANILDRA,NSW,-33.1817,148.6846,0
3615,03-12-2010 04:40,BERRIGAN,NSW,-35.6318,145.8013,0
3616,08-12-2010 05:45,BROKEN HILL,NSW,-31.9652,141.4513,0
3617,09-12-2010 00:00,PARKES AIRPORT,NSW,-33.1317,148.2346,0
3618,09-12-2010 02:36,MANILDRA,NSW,-33.1817,148.6846,0
3619,09-12-2010 03:00,MOUNT GRAY,NSW,-34.7651,149.7679,0
3620,06-12-2010 01:25,LANDSBOROUGH,QLD,-26.8051,152.9838,0
3621,06-12-2010 07:05,WOODSPRING,QLD,-25.1333,152.4167,0
3622,06-12-2010 04:05,GLEN RUTH,QLD,-18.0049,145.4125,0
3623,07-12-2010 18:20,BLACKALL,QLD,-24.6637,145.5239,0
3624,08-12-2010 10:05,CLONCURRY,QLD,-20.7046,140.5054,0
3625,11-12-2010 00:00,SAMFORD,QLD,-27.3723,152.8869,0
3626,11-12-2010 06:05,WYNNUM,QLD,-27.4401,153.1705,0
3627,11-12-2010 06:16,LYTTON,QLD,-27.4234,153.1511,0
3628,11-12-2010 06:15,MITCHELTON,QLD,-27.4109,152.973,0
3629,11-12-2010 01:40,SOMERSET DAM,QLD,-27.1173,152.5514,0
3630,12-12-2010 00:45,HOWARD,QLD,-25.3181,152.5591,0
3631,12-12-2010 00:00,ALLIGATOR CREEK,QLD,-21.3132,149.2116,0
3632,12-12-2010 06:00,FERNY HILLS,QLD,-27.3904,152.9327,0
3633,14-12-2010 04:55,RAVENSWOOD,QLD,-20.0965,146.8889,0
3634,16-12-2010 05:00,LANDSBOROUGH,QLD,-26.8092,152.9655,0
3635,16-12-2010 03:55,WACOL,QLD,-27.5845,152.9205,0
3636,16-12-2010 04:00,CAROLE PARK,QLD,-27.6215,152.9275,0
3637,16-12-2010 05:05,BRIBIE ISLAND,QLD,-26.95,153.1167,0
3638,16-12-2010 05:45,MAROOCHYDORE,QLD,-26.6554,153.0933,0
3639,16-12-2010 04:05,SLACK CREEK,QLD,-25.35,152.0667,0
3640,16-12-2010 04:00,TOOLARA FOREST,QLD,-26.0526,152.8552,0
3641,17-12-2010 08:55,WOLFFDENE,QLD,-27.7833,153.1667,0
3642,18-12-2010 07:00,NOOSAVILLE,QLD,-26.3981,153.0616,0
3643,18-12-2010 08:00,TOOLARA FOREST,QLD,-26.0526,152.8552,0
3644,18-12-2010 16:35,BRAESIDE,QLD,-28.3923,151.9094,0
3645,18-12-2010 16:40,CAPE RIVER,QLD,-20.4712,145.4827,111
3646,20-12-2010 07:20,MUTARNEE,QLD,-18.954,146.292,0
3647,21-12-2010 06:15,INGHAM,QLD,-18.651,146.1572,0
3648,21-12-2010 18:45,MUNRO PLAINS,QLD,-17.9646,145.7739,0
3649,22-12-2010 18:45,MOURA,QLD,-24.5731,149.975,0
3650,23-12-2010 13:45,NETHERDALE,QLD,-21.1212,148.533,0
3651,24-12-2010 19:35,GOLDSBOROUGH,QLD,-17.1824,145.7442,0
3652,26-12-2010 19:50,REWAN,QLD,-24.9659,148.3867,0
3653,27-12-2010 02:20,CAMBOOYA,QLD,-27.7079,151.8633,0
3654,27-12-2010 03:00,ALLORA,QLD,-28.0356,151.9803,0
3655,27-12-2010 03:15,WARWICK,QLD,-28.2154,152.0353,0
3656,27-12-2010 06:55,TOOMULLA,QLD,-19.0801,146.4747,0
3657,27-12-2010 08:05,BARALABA,QLD,-24.182,149.8133,0
3658,27-12-2010 08:50,RANNES,QLD,-24.0987,150.12,0
3659,29-12-2010 04:55,COLLINSVILLE,QLD,-20.5526,147.8453,0
3660,29-12-2010 08:50,ATHERTON,QLD,-17.266,145.4781,0
3661,09-12-2010 08:17,COONAMBLE AIRPORT,NSW,-30.9651,148.3679,0
3662,11-12-2010 03:55,EVANS HEAD,NSW,-29.1151,153.4345,0
3663,16-12-2010 02:50,BOWEN MOUNTAIN,NSW,-33.5817,150.6179,0
3664,16-12-2010 03:15,FAULCONBRIDGE,NSW,-33.6984,150.5346,0
3665,16-12-2010 03:00,PENRITH,NSW,-33.7484,150.7512,0
3666,26-12-2010 07:00,MANILDRA,NSW,-33.1817,148.6846,0
3667,26-12-2010 19:30,BOURKE,NSW,-30.0818,145.9512,0
3668,03-12-2010 01:45,BATHURST,NSW,-33.4167,149.5807,0
3669,03-12-2010 01:45,BATHURST,NSW,-33.4167,149.5807,0
3670,03-12-2010 01:45,BATHURST,NSW,-33.4167,149.5807,0
3671,03-01-2011 01:45,BATHURST,NSW,-33.4167,149.5807,0
3672,05-01-2011 02:48,LOOMBERAH,NSW,-31.2317,151.0178,0
3673,03-01-2011 05:50,IDA CREEK,QLD,-20.2833,148.1167,0
3674,05-01-2011 01:40,TAROOM,QLD,-25.6404,149.7983,0
3675,08-01-2011 20:15,VINCENTIA,NSW,-35.0651,150.6846,0
3676,09-01-2011 00:00,KOORAWATHA,NSW,-34.0484,148.5679,0
3677,11-01-2011 00:00,BLACKVILLE,NSW,-31.6317,150.2345,0
3678,13-01-2011 08:00,MENINDEE,NSW,-32.3652,142.4013,0
3679,18-01-2011 17:00,EVANS HEAD,NSW,-29.1151,153.4345,0
3680,19-01-2011 02:45,CORNDALE,NSW,-28.7231,153.3614,0
3681,19-01-2011 05:05,UTUNGUN,NSW,-30.7426,152.8275,0
3682,19-01-2011 16:00,KIAMA,NSW,-34.6651,150.8512,0
3683,18-01-2011 06:00,GOODNA,QLD,-27.6087,152.8927,0
3684,18-01-2011 07:00,JIMBOOMBA,QLD,-27.8301,153.0313,0
3686,18-01-2011 07:00,TALLEGALLA,QLD,-27.5898,152.5547,0
3687,18-01-2011 06:00,TEEMBURRA CREEK,QLD,-21.2833,148.7333,0
3688,18-01-2011 04:15,ROCKHAMPTON,QLD,-23.3781,150.5136,0
3689,20-01-2011 06:15,ARATULA,QLD,-27.9815,152.5486,0
3690,06-02-2011 21:30,TOOWOOMBA,QLD,-27.5592,151.9536,0
3691,06-02-2011 20:30,TALLEGALLA,QLD,-27.5898,152.5547,0
3693,07-02-2011 07:00,WERIBONE,QLD,-27.204,148.8823,0
3694,08-02-2011 00:00,CHARLEVILLE,QLD,-26.4018,146.2384,150
3695,08-02-2011 09:00,WOODLEIGH,QLD,-27.0862,151.6753,150
3696,20-01-2011 10:00,STORM KING DAM,QLD,-28.7333,151.9833,0
3697,20-01-2011 10:00,STORM KING DAM,QLD,-28.7333,151.9833,0
3698,20-02-2011 10:00,STORM KING DAM,QLD,-28.7333,151.9833,0
3699,21-02-2011 06:00,WACOL,QLD,-27.5845,152.9205,0
3700,21-02-2011 00:00,ENOGGERA,QLD,-27.4279,152.9783,0
3701,21-02-2011 00:00,MITCHELTON,QLD,-27.4109,152.973,0
3702,23-02-2011 23:00,TULLY,QLD,-17.9312,145.9242,0
3703,23-02-2011 23:00,EURAMO,QLD,-18.0029,145.8972,158
3704,24-02-2011 23:00,DAINTREE,QLD,-16.2496,145.3214,243
3705,24-02-2011 23:00,WHYANBEEL,QLD,-16.3485,145.3556,235
3706,24-02-2011 23:00,CAIRNS CITY,QLD,-16.9218,145.7744,205
3707,24-02-2011 23:00,BABINDA,QLD,-17.3424,145.9236,184
3708,22-01-2011 04:57,BATHURST,NSW,-33.4167,149.5807,0
3711,04-02-2011 04:00,WENTWORTH,NSW,-34.0985,141.9013,0
3712,04-02-2011 04:00,TUGGERANONG,NSW,-35.4317,149.1512,0
3713,04-02-2011 08:15,MOAMA,NSW,-36.0985,144.7513,0
3714,12-10-2010 05:35,MALDON,VIC,-36.9917,144.0639,0
3715,12-10-2010 05:00,ANGLESEA,VIC,-38.4111,144.1837,0
3716,13-11-2010 08:15,BEECHWORTH POST OFFICE,VIC,-36.3611,146.6859,0
3717,26-11-2010 04:20,BURWOOD EAST,VIC,-37.8536,145.1484,0
3718,26-11-2010 03:40,ESSENDON,VIC,-37.7531,144.908,0
3719,26-11-2010 05:35,CRAIGIEBURN,VIC,-37.5959,144.9328,0
3720,26-11-2010 08:05,KILMORE,VIC,-37.2988,144.95,0
3721,26-11-2010 05:00,DIAMOND CREEK,VIC,-37.6725,145.154,0
3722,03-02-2011 07:20,EASTVILLE,VIC,-36.9015,143.9795,0
3723,03-02-2011 07:30,KNOWSLEY,VIC,-36.8277,144.5848,0
3724,03-02-2011 10:00,ARCADIA,VIC,-36.5639,145.3316,0
3725,03-02-2011 10:00,VIOLET TOWN,VIC,-36.6168,145.7341,0
3726,03-02-2011 10:00,MOUNT BULLER,VIC,-37.1485,146.4482,0
3727,03-02-2011 10:00,KELFEERA,VIC,-36.608,146.0809,0
3728,16-02-2011 05:40,GLEN FORBES,VIC,-38.4593,145.5444,0
3729,04-02-2011 01:45,RUTHERGLEN,VIC,-36.0577,146.4615,0
3730,04-02-2011 02:05,RUTHERGLEN,VIC,-36.0577,146.4615,0
3731,04-02-2011 01:42,RUTHERGLEN,VIC,-36.0577,146.4615,0
3732,04-02-2011 04:06,MILDURA,VIC,-34.1942,142.1559,106
3733,04-02-2011 05:00,WYNDHAM VALE,VIC,-37.8644,144.6013,106
3734,04-02-2011 06:10,MEREDITH,VIC,-37.8134,144.0461,100
3735,04-02-2011 07:45,LYNDHURST,VIC,-38.0629,145.2515,0
3736,04-02-2011 06:50,MENTONE,VIC,-37.9866,145.0676,29
3737,04-02-2011 06:50,DANDENONG,VIC,-37.9879,145.2122,0
3738,04-02-2011 07:15,ASPENDALE,VIC,-38.0268,145.103,0
3739,04-02-2011 08:30,CHADSTONE,VIC,-37.8842,145.0919,0
3740,04-02-2011 08:10,BENTLEIGH,VIC,-37.9238,145.0351,0
3741,04-02-2011 08:00,DINGLEY,VIC,-37.9821,145.1269,0
3742,04-02-2011 11:00,YARRAMBAT,VIC,-37.6362,145.1334,0
3743,06-10-2010 06:45,RUTHERGLEN,VIC,-36.0577,146.4615,0
3744,07-11-2010 11:00,RUTHERGLEN,VIC,-36.0577,146.4615,0
3745,12-11-2010 07:05,CARRUM DOWNS,VIC,-38.0973,145.1764,0
3746,12-11-2010 08:05,CARRUM DOWNS,VIC,-38.0973,145.1764,0
3747,24-11-2010 03:00,CASTERTON,VIC,-37.589,141.3987,0
3748,24-11-2010 06:30,COLAC,VIC,-38.3408,143.5825,0
3749,25-11-2010 02:50,BEECHWORTH,VIC,-36.3624,146.6879,0
3750,01-12-2010 05:45,FERNY CREEK,VIC,-37.8798,145.3342,0
3751,01-12-2010 05:04,TULLAMARINE,VIC,-37.67,144.83,0
3752,01-12-2010 05:45,MELTON,VIC,-37.6838,144.5788,0
3753,01-12-2010 05:00,BENTLEIGH,VIC,-37.9238,145.0351,0
3754,02-12-2010 03:00,MILL PARK,VIC,-37.6728,145.061,0
3755,02-12-2010 04:40,MYRTLEFORD,VIC,-36.559,146.724,0
3756,02-12-2010 04:00,AVOCA,VIC,-37.0897,143.473,0
3757,03-12-2010 05:55,Mortlake,VIC,-38.07,142.77,0
3758,03-12-2010 07:00,Sale,VIC,-38.12,147.13,0
3759,03-12-2010 03:00,SEVILLE,VIC,-37.7796,145.4556,0
3760,03-12-2010 02:36,Coldstream,VIC,-37.72,145.41,0
3761,04-12-2010 05:30,STAWELL,VIC,-37.0598,142.7771,0
3762,05-12-2010 01:30,GLENLYON,VIC,-37.2979,144.2416,0
3763,05-12-2010 01:55,DAYLESFORD,VIC,-37.346,144.1427,0
3764,05-12-2010 05:15,DERGHOLM,VIC,-37.3722,141.2924,0
3765,06-12-2010 04:00,WARRACKNABEAL,VIC,-36.2537,142.3914,0
3766,17-12-2010 07:00,PAKENHAM,VIC,-38.0773,145.4779,0
3767,10-01-2011 06:45,PAKENHAM,VIC,-38.0773,145.4779,0
3768,22-01-2011 08:00,MYRTLEFORD,VIC,-36.559,146.724,0
3769,12-01-2011 09:20,TRENTHAM,VIC,-37.4211,144.3248,0
3770,04-02-2011 06:40,ROCHESTER,VIC,-36.3613,144.6985,0
3771,13-03-2011 04:50,MILL PARK,VIC,-37.6728,145.061,0
3772,25-11-2010 07:42,Seymour,VIC,-37.02,145.11,0
3773,03-12-2010 00:00,MITTA MITTA,VIC,-36.7967,147.525,0
3774,03-12-2010 04:00,SIMPSON,VIC,-38.5708,143.3289,0
3775,04-02-2011 07:40,WYNDHAM VALE,VIC,-37.8644,144.6013,0
3776,13-03-2011 04:40,ELTHAM NORTH,VIC,-37.7003,145.1345,0
3777,13-03-2011 04:15,CROYDON,VIC,-37.7979,145.2792,0
3779,06-02-2011 22:34,GUYRA,NSW,-30.2151,151.6678,0
3780,12-02-2011 02:56,OBERON,NSW,-33.6984,149.8679,0
3781,12-02-2011 04:50,BELLBROOK,NSW,-30.8151,152.5011,0
3782,13-02-2011 05:05,DARKWOOD,NSW,-30.4484,152.6511,0
3783,13-02-2011 05:10,BELLINGEN,NSW,-30.4484,152.9011,0
3784,15-02-2011 03:30,WILCANNIA,NSW,-31.5652,143.368,0
3785,20-02-2011 07:30,TOCAL,NSW,-32.6401,151.5928,0
3786,21-02-2011 00:00,EVANS HEAD,NSW,-29.1151,153.4345,0
3788,27-02-2011 05:25,NAMBUCCA HEADS,NSW,-30.6415,152.9906,0
3789,02-03-2011 03:57,WALCHA,NSW,-30.9817,151.5845,0
3790,06-01-2011 03:35,LAKE TINAROO,QLD,-17.1957,145.6281,0
3791,06-01-2011 04:50,FLAGGY CREEK,QLD,-17.45,145.3667,0
3792,06-01-2011 20:30,TRAVESTON,QLD,-26.3198,152.7802,0
3793,11-03-2011 06:55,BIG HILL,NSW,-34.5484,150.0012,0
3794,08-01-2011 08:30,MOUNT ISA,QLD,-20.726,139.494,0
3795,08-01-2011 12:30,LAWN HILL NATIONAL PARK,QLD,-18.7696,138.3873,0
3796,10-01-2011 10:00,CHINCHILLA,QLD,-26.7384,150.6283,0
3797,11-03-2011 05:50,SUNNY CORNER,NSW,-33.3817,149.8846,76
3798,13-03-2011 05:15,Blackheath,NSW,-33.3817,149.8846,0
3799,05-03-2011 00:00,SAPPHIRE,QLD,-23.4612,147.7208,0
3800,14-03-2011 01:50,GEORGES PLAINS,NSW,-33.5151,149.5179,0
3801,05-03-2011 23:00,BEDOURIE,QLD,-24.3593,139.4693,0
3802,14-03-2011 05:50,BARRINGTON TOPS,NSW,-31.892,151.555,0
3803,07-04-2011 23:00,WEIPA AIRPORT,QLD,-12.6785,141.9247,0
3804,15-03-2011 05:34,bombala,NSW,-36.9151,149.2346,0
3805,16-03-2011 09:40,NABIAC,NSW,-32.0984,152.3845,0
3806,16-03-2011 09:05,KRAMBACH,NSW,-32.0484,152.2678,0
3807,03-05-2011 06:23,CEDAR CREEK,QLD,-27.8195,153.1641,0
3808,17-03-2011 06:00,PORT MACQUARIE,NSW,-31.4317,152.9178,0
3809,20-03-2011 23:00,KIAMA,NSW,-34.6651,150.8512,0
3810,21-03-2011 01:00,ALBION PARK,NSW,-34.5817,150.7762,0
3811,20-03-2011 23:00,ALBION PARK AERODROME,NSW,-34.5651,150.7846,0
3812,21-03-2011 01:00,ALBION PARK AERODROME,NSW,-34.5651,150.7846,0
3828,30-05-2011 00:00,ZETLAND,NSW,-33.9151,151.2096,0
3829,14-09-2010 00:55,WYONG,NSW,-33.2817,151.4178,0
3830,13-09-2010 23:45,ERINA,NSW,-33.4401,151.3928,0
3831,31-10-2010 03:35,KAHIBAH,NSW,-32.9651,151.7011,0
3832,04-11-2010 00:00,MOUNT SEAVIEW,NSW,-31.3651,152.2217,0
3867,19-03-2011 11:00,BERRY,NSW,-34.7817,150.7012,0
3868,18-03-2011 22:00,UPPER KANGAROO VALLEY,NSW,-34.6868,150.618,0
3922,08-03-2011 00:00,PALM VALLEY,NT,-24.0667,132.75,125
3923,08-03-2011 00:00,PALM VALLEY,NT,-24.0667,132.75,125
3924,27-08-2010 00:00,MOUNT STOW,NT,-13.9032,132.6405,86
3925,27-08-2010 00:00,MOUNT STOW,NT,-13.9032,132.6405,86
3926,09-09-2010 00:00,ALICE SPRINGS,NT,-23.6994,133.8807,0
3927,29-10-2010 15:30,KULGERA,NT,-25.8431,133.2929,0
3928,29-11-2010 10:00,MARRARA,NT,-12.404,130.9104,120
3929,29-11-2010 10:00,Darwin River Ridge,NT,-12.8136,130.9875,110
3930,08-12-2010 15:00,BOND SPRINGS,NT,-23.5391,133.9216,18
3931,21-02-2011 15:00,JABIRU,NT,-12.6752,132.8337,190
3932,04-03-2011 00:00,HELEN SPRINGS,NT,-18.4344,133.8739,148
3933,09-03-2011 00:00,HERMANNSBURG,NT,-23.9449,132.7778,113
3934,28-08-2011 00:00,SARINA,QLD,-21.4226,149.2175,0
3935,09-09-2011 00:00,WARWICK,QLD,-28.2154,152.0353,0
3936,07-10-2011 21:10,CROWS NEST,QLD,-27.2659,152.058,0
3937,07-10-2011 06:05,CROWS NEST,QLD,-27.2659,152.058,0
3938,07-10-2011 06:30,ESK,QLD,-27.2395,152.4197,0
3939,07-10-2011 21:30,LAIDLEY,QLD,-27.6315,152.3939,0
3940,07-10-2011 07:00,MOUNT ALFORD,QLD,-28.0654,152.5964,0
3941,07-10-2011 06:45,MOUNT COTTON,QLD,-27.6167,153.2167,0
3942,07-10-2011 07:15,TOOMBUL,QLD,-27.4167,153.05,0
3943,07-10-2011 06:30,GORDON PARK,QLD,-27.4165,153.0275,0
3944,07-10-2011 06:00,SLACKS CREEK,QLD,-27.6487,153.1511,0
3945,07-10-2011 06:40,MOUNT COTTON,QLD,-27.6167,153.2167,0
3946,07-10-2011 06:30,HELIDON,QLD,-27.5504,152.1261,0
3947,07-10-2011 06:45,TENTHILL,QLD,-27.6667,152.2333,0
3948,07-10-2011 07:00,LAIDLEY,QLD,-27.6315,152.3939,0
3949,07-10-2011 07:45,PEAK CROSSING,QLD,-27.7856,152.7552,0
3950,07-10-2011 00:00,PARKINSON,QLD,-27.65,153.0333,0
3951,15-10-2011 10:35,BOORAL,QLD,-25.354,152.8899,0
3952,15-10-2011 10:30,BURRUM TOWN,QLD,-25.329,152.5872,0
3953,19-10-2011 18:45,GOLDSBOROUGH,QLD,-17.1824,145.7442,385
3954,18-10-2011 05:00,MENA CREEK,QLD,-17.6712,145.9231,157
3958,04-11-2011 06:00,MOUNT ISA,QLD,-20.726,139.494,0
3959,13-11-2011 08:25,RATHDOWNEY,QLD,-28.2115,152.8633,0
3966,30-10-2011 10:00,HAMILTON,QLD,-27.4373,153.0594,0
3968,30-10-2011 06:00,FELTON,QLD,-27.7493,151.7372,100
4012,18-11-2011 00:00,CORONA,QLD,-23.1167,143.35,0
4115,07-11-2011 09:45,NEWCASTLE,NSW,-32.9317,151.7845,0
4116,08-11-2011 05:00,SHELLHARBOUR,NSW,-34.5817,150.8679,0
4117,29-11-2011 11:00,ROSSI,NSW,-35.4651,149.5012,0
4118,28-09-2011 05:30,GISBORNE,VIC,-37.4902,144.5896,0
4119,28-09-2011 05:40,MELBOURNE,VIC,-37.8436,144.974,0
4120,06-10-2011 04:30,THORPDALE,VIC,-38.3249,146.2082,0
4121,06-10-2011 08:30,GISBORNE,VIC,-37.4902,144.5896,0
4122,22-10-2011 04:10,BALLARAT,VIC,-37.5615,143.853,0
4123,22-10-2011 06:00,BENDIGO,VIC,-36.7625,144.2777,0
4124,28-10-2011 05:45,BROOKLYN,VIC,-37.8141,144.8395,0
4125,09-11-2011 07:50,SOMERVILLE,VIC,-38.228,145.1755,0
4126,09-11-2011 08:00,ELWOOD,VIC,-37.8851,144.985,0
4127,09-11-2011 08:00,BENTLEIGH EAST,VIC,-37.9226,145.0659,0
4128,09-11-2011 08:00,BEAUMARIS,VIC,-37.9843,145.0415,0
4129,09-11-2011 08:15,PAKENHAM,VIC,-38.0773,145.4779,0
4130,09-11-2011 03:00,PORT FAIRY,VIC,-38.3862,142.2309,18
4131,25-11-2011 10:30,BEULAH WEST,VIC,-35.9349,142.2782,0
4133,10-12-2011 06:00,WANGARATTA,VIC,-36.3608,146.3112,0
4134,16-12-2011 06:45,TONGIO,VIC,-37.2125,147.7179,0
4135,25-11-2011 23:45,KEW,VIC,-37.8102,145.0279,0
4136,25-11-2011 23:50,NORTHCOTE,VIC,-37.7746,145.0027,0
4137,18-12-2011 05:15,MOCKINYA,VIC,-36.963,142.1525,0
4138,18-12-2011 06:00,HALLS GAP,VIC,-37.1714,142.5612,0
4140,18-12-2011 05:00,MOUNT WILLIAM,VIC,-37.2943,142.5998,0
4141,18-12-2011 07:30,HALLS GAP,VIC,-37.1714,142.5612,0
4143,18-12-2011 05:40,GREAT WESTERN,VIC,-37.1984,142.8179,0
4144,18-12-2011 06:28,STAWELL,VIC,-37.0598,142.7771,0
4145,18-12-2011 06:40,STAWELL,VIC,-37.0598,142.7771,0
4146,19-12-2011 00:00,TOOLANGI,VIC,-37.5641,145.4602,0
4147,18-12-2011 11:00,TRENTHAM,VIC,-37.4211,144.3248,0
4148,18-12-2011 06:30,HALLS GAP,VIC,-37.1714,142.5612,0
4150,18-12-2011 11:25,MOUNT MACEDON,VIC,-37.3992,144.588,0
4151,18-12-2011 12:40,CRAIGIEBURN,VIC,-37.5959,144.9328,0
4152,24-12-2011 05:00,Dargo,VIC,-37.49,147.1658,0
4153,25-12-2011 04:30,DELAHEY,VIC,-37.721,144.7761,0
4154,25-12-2011 06:10,ELTHAM,VIC,-37.7258,145.1347,0
4155,25-12-2011 06:30,YARRA GLEN,VIC,-37.6604,145.3731,0
4156,25-12-2011 05:30,ELTHAM,VIC,-37.7258,145.1347,136
4157,25-12-2011 04:53,LAVERTON R A A F BASE,VIC,-37.8627,144.7412,44
4158,04-12-2010 11:00,MILDURA AIRPORT,VIC,-34.2316,142.0815,53
4159,09-02-2012 09:30,Pennyroyal,VIC,-38.421,143.8348,223
4160,09-02-2012 03:00,BUCHAN CAVES,VIC,-37.5028,148.1585,0
4161,09-02-2012 07:15,CORA LYNN,VIC,-38.1429,145.6066,0
4162,28-01-2012 09:50,BROADFORD,VIC,-37.2057,145.0449,0
4163,10-02-2012 02:30,Penshurst,VIC,-37.8824,142.4235,77
4164,10-02-2012 04:35,BEAUFORT,VIC,-37.4332,143.3781,0
4165,10-02-2012 06:30,CASTLEMAINE,VIC,-37.0639,144.2163,0
4166,20-12-2012 00:00,ROCHESTER,VIC,-36.3613,144.6985,33
4167,19-02-2012 23:30,Archerton,VIC,-36.9064,146.2389,0
4168,19-02-2012 23:30,STRATH CREEK,VIC,-37.24,145.2176,31
4169,26-02-2012 06:00,Rutherglen,VIC,-36.1047,146.5094,49
4170,27-02-2012 04:41,MILDURA AIRPORT,VIC,-34.2316,142.0815,34
4171,27-02-2012 04:40,BALLARAT,VIC,-37.5615,143.853,0
4172,27-02-2012 06:00,BALLARAT,VIC,-37.5615,143.853,0
4173,27-02-2012 09:30,Benalla,VIC,-36.6181,145.9822,167
4174,27-02-2012 08:00,MILL PARK,VIC,-37.6728,145.061,0
4175,27-02-2012 08:30,CASTLEMAINE,VIC,-37.0639,144.2163,0
4176,27-02-2012 08:30,CHEWTON,VIC,-37.082,144.2584,0
4177,14-03-2012 04:30,CALLAGHAN CREEK,VIC,-36.4459,147.4274,0
4178,22-04-2012 08:15,TARRAWINGEE,VIC,-36.3948,146.4469,0
4179,22-02-2012 05:30,Aurthurs Seat,VIC,-38.3586,144.9444,26
4180,24-04-2012 01:00,CRANBOURNE,VIC,-38.1061,145.2777,0
4181,11-12-2011 02:59,Berowra heights,NSW,-33.607,151.143,0
4184,11-12-2011 02:00,TUGGERANONG,NSW,-35.4317,149.1512,0
4185,11-12-2011 06:29,TERREEL RIDGE,NSW,-32.2151,152.0345,0
4186,11-12-2011 17:30,BLUE HAVEN,NSW,-33.1984,151.4845,160
4187,11-12-2011 06:32,COOMA AIRPORT,NSW,-36.2984,148.9679,0
4188,11-12-2011 07:00,DUNGOG,NSW,-32.3817,151.8345,0
4189,19-12-2011 07:10,GREYSTANES,NSW,-33.8151,150.9346,0
4190,19-12-2011 07:15,MERRYLANDS,NSW,-33.8401,150.9846,0
4191,19-12-2011 07:15,DOYLES PROSPECT,NSW,-31.2984,148.9346,0
4192,21-12-2011 07:30,PINE RIDGE,NSW,-33.9317,149.2846,0
4193,21-12-2011 07:30,BLACKVILLE,NSW,-31.6317,150.2345,0
4194,21-12-2011 07:30,DURI,NSW,-31.2151,150.8178,0
4195,22-12-2011 05:20,COOMA,NSW,-36.2515,149.0782,0
4196,24-12-2011 04:10,BARRINGTON TOPS,NSW,-31.9984,151.4511,0
4197,24-12-2011 04:10,WAUKIVORY CREEK,NSW,-32.0817,152.0011,0
4198,24-12-2011 07:00,JINGERA,NSW,-35.7651,149.4179,0
4199,24-12-2011 07:20,QUEANBEYAN,NSW,-35.3576,149.2332,0
4200,24-12-2011 07:55,CAPTAINS FLAT,NSW,-35.5817,149.4512,0
4201,26-12-2011 08:40,PUTTY,NSW,-32.9151,150.6512,0
4202,03-01-2012 07:11,JERANGLE,NSW,-35.8817,149.3679,0
4203,05-01-2012 06:40,MANILDRA,NSW,-33.1817,148.6846,0
4204,05-01-2012 12:25,AVALON,NSW,-33.6317,151.3179,0
4205,14-01-2012 04:30,BATHURST,NSW,-33.4167,149.5807,0
4206,19-01-2012 06:30,EAST ORANGE CREEK,NSW,-33.3067,149.1054,0
4207,20-01-2012 10:04,TUGGERANONG,NSW,-35.4317,149.1512,0
4208,21-01-2012 02:50,BATHURST,NSW,-33.4167,149.5807,0
4209,22-01-2012 00:20,TAREE,NSW,-31.9151,152.4511,0
4210,26-01-2012 07:23,WARRAGAMBA DAM,NSW,-33.8817,150.5929,0
4211,06-02-2012 10:30,MUDGEE AIRPORT,NSW,-32.5484,149.6012,0
4212,08-02-2012 03:40,WEABONGA,NSW,-31.2151,151.3178,0
4213,08-02-2012 03:40,DUBBO,NSW,-32.2567,148.6012,0
4214,11-02-2012 06:20,WOOLGOOLGA,NSW,-30.0984,153.1511,0
4215,12-02-2012 04:15,INGLEBURN,NSW,-33.9984,150.8512,0
4216,12-02-2012 05:00,KINGS LANGLEY,NSW,-33.7484,150.9179,0
4217,12-02-2012 10:20,COFFS HARBOUR,NSW,-30.3151,153.1345,0
4218,13-02-2012 02:05,MURWILLUMBAH,NSW,-28.3317,153.3845,0
4219,13-02-2012 05:25,KENDALL,NSW,-35.4818,148.0012,0
4220,14-02-2012 07:30,BARRINGTON TOPS,NSW,-31.9984,151.4511,0
4221,18-02-2012 06:24,DUBBO,NSW,-32.2567,148.6012,0
4222,18-02-2012 08:23,PARKVILLE RAILWAY STATION,NSW,-31.9817,150.8678,0
4223,19-02-2012 07:58,JERVIS BAY,NSW,-35.0651,150.7346,0
4224,19-02-2012 09:50,DARKES FOREST,NSW,-34.2317,150.9096,0
4225,19-02-2012 10:00,EAST SYDNEY,NSW,-33.8817,151.2179,0
4226,19-02-2012 11:15,PEAKHURST,NSW,-33.9567,151.0596,0
4227,20-02-2012 06:18,TAMWORTH,NSW,-31.0817,150.9345,0
4228,20-02-2012 11:30,YAMBA,NSW,-29.4401,153.3595,0
4229,20-02-2012 14:00,KYOGLE VIEW,NSW,-28.3984,153.0678,0
4230,20-02-2012 15:00,CAWONGLA,NSW,-28.5984,153.1011,0
4231,20-02-2012 15:00,DOON DOON CREEK,NSW,-28.4984,153.3011,0
4232,29-02-2012 06:00,WILCANNIA AERODROME,NSW,-31.4985,143.368,0
4233,29-03-2012 07:05,ST ALBANS,NSW,-33.2901,150.9929,0
4234,08-04-2012 08:38,OAKLANDS RAILWAY STATION,NSW,-35.5485,146.168,0
4235,08-04-2012 10:20,TURRAMURRA,NSW,-33.7317,151.1346,0
4236,18-01-2012 10:00,TUGGERANONG,NSW,-35.4317,149.1512,0
4237,11-12-2011 13:06,SAN REMO,NSW,-33.1984,151.5178,0
4238,12-02-2012 04:00,CABRAMATTA,NSW,-33.8984,150.9346,0
4239,09-11-2011 08:30,MILL PARK,VIC,-37.6728,145.061,0
4240,17-12-2011 19:00,MILDURA AIRPORT,VIC,-34.2316,142.0815,59
4241,16-03-2012 01:43,MOUNT KURING-GAI,NSW,-33.7484,151.0679,0
4242,05-01-2012 06:30,WOOLBROOK,NSW,-30.9651,151.3511,0
4243,10-02-2012 05:14,CHARLESTOWN,NSW,-32.9651,151.6845,0
4244,19-02-2012 11:30,MOUNT KURING-GAI,NSW,-33.7484,151.0679,0
4245,08-11-2011 00:00,LEIGH CREEK,SA,-30.5924,138.4003,0
4246,17-12-2011 00:00,KADINA,SA,-33.9626,137.7154,0
4247,17-12-2011 00:00,BUCKLAND PARK,SA,-34.6428,138.4778,0
4248,17-12-2011 00:00,HALLETT COVE,SA,-35.0769,138.5018,0
4249,17-12-2011 00:00,WHYALLA AIRPORT,SA,-33.0594,137.5154,0
4250,17-12-2011 00:00,GLUEPOT,SA,-33.0234,134.7166,102
4251,07-01-2012 00:00,LITTLE PARA RESERVOIR,SA,-34.7514,138.723,0
4252,07-01-2012 00:00,GOLDEN GROVE,SA,-34.7838,138.706,0
4253,07-01-2012 00:00,KERSBROOK,SA,-34.7843,138.8516,0
4254,07-01-2012 00:00,Ironstone Road,SA,-34.7843,138.8516,0
4255,07-01-2012 00:00,Cromer Road,SA,0,0,0
4256,07-01-2012 00:00,BELLEVUE HEIGHTS,SA,-35.0326,138.594,0
4257,07-01-2012 00:00,ACKLAND HILL,SA,-35.0519,138.6431,0
4258,07-01-2012 00:00,MOUNT CRAWFORD,SA,-34.713,138.9528,0
4259,07-01-2012 00:00,KUITPO,SA,-35.2266,138.6862,0
4260,07-01-2012 00:00,BUCKLAND PARK,SA,-34.6859,138.5169,0
4261,07-01-2012 00:00,CLEVE,SA,-33.702,136.4937,0
4262,29-01-2012 00:00,WHYALLA,SA,-33.0594,137.5154,0
4264,29-01-2012 00:00,MELTON,SA,-34.0834,137.9817,56
4265,29-01-2012 09:00,WILMINGTON,SA,-32.6511,138.1004,70
4266,14-03-2012 18:30,BELLEVUE HEIGHTS,SA,-35.0326,138.594,0
4267,14-03-2012 18:30,ACKLAND HILL,SA,-35.0519,138.6431,0
4268,14-03-2012 18:30,MELROSE PARK,SA,-34.9843,138.5785,0
4269,14-07-2010 08:40,ELIZABETH DOWNS,SA,-34.6984,138.6933,0
4270,18-07-2010 05:50,MARION,SA,-34.9971,138.5515,0
4271,13-09-2010 00:00,CLEVE AERODROME,SA,-33.7104,136.5047,0
4272,13-09-2010 00:00,MOONTA,SA,-34.0671,137.589,0
4273,24-11-2010 15:30,WOLSELEY,SA,-36.3652,140.9067,0
4274,01-12-2010 17:45,YOUNGHUSBAND,SA,-34.8828,139.5255,0
4275,02-12-2010 15:30,WOODSIDE,SA,-34.9516,138.8756,0
4278,06-12-2010 09:00,ANGASTON,SA,-34.5045,139.0494,74
4279,07-12-2010 00:00,MANNUM,SA,-34.9137,139.3058,0
4280,07-12-2010 00:00,FREELING,SA,-34.4542,138.8105,0
4281,07-12-2010 00:00,BURNSIDE,SA,-34.939,138.6657,0
4282,07-12-2010 00:00,STOCKPORT,SA,-34.334,138.732,0
4283,08-01-2011 17:30,Ernabella,SA,0,0,55
4284,05-02-2011 09:00,YUNTA,SA,-32.5797,139.5587,0
4285,05-02-2011 16:30,PORT AUGUSTA AERODROME,SA,-32.5085,137.718,0
4286,05-02-2011 15:30,MOUNT MARY,SA,-31.1247,138.5473,0
4287,11-02-2011 12:00,GOLDEN GROVE,SA,-34.7838,138.706,0
4288,11-02-2011 12:00,SALISBURY,SA,-34.7639,138.6423,0
4289,15-02-2011 00:00,HANSBOROUGH,SA,-34.2505,139.0118,51
4290,15-02-2011 00:00,EUDUNDA,SA,-34.1758,139.0841,49
4291,15-02-2011 00:00,NURIOOTPA,SA,-34.4707,138.9959,47
4292,15-02-2011 00:00,TANUNDA,SA,-34.5252,138.9582,33
4293,15-02-2011 00:00,SWAN REACH,SA,-34.5679,139.5997,0
4294,16-02-2011 17:00,HANSBOROUGH,SA,-34.2505,139.0118,0
4295,16-02-2011 17:00,KAPUNDA,SA,-34.3408,138.9154,0
4296,16-02-2011 17:00,NURIOOTPA,SA,-34.4707,138.9959,0
4297,16-02-2011 17:00,KALANGADOO,SA,-37.5638,140.7014,65
4298,19-03-2011 00:03,OODNADATTA AERODROME,SA,-27.5616,135.442,0
4299,11-02-2010 13:30,MOOMBA,SA,-28.1087,140.1919,0
4300,24-05-2010 17:00,PORT VICTORIA,SA,-34.4966,137.4835,0
4312,15-08-2012 16:30,TENNANT CREEK,NT,-19.55,134.2333,0
4313,15-10-2011 07:00,TENNANT CREEK,NT,-19.6511,134.1897,59
4314,03-12-2011 06:30,JABIRU AERODROME,NT,-12.6583,132.8917,87
4315,31-01-2012 01:00,DARWIN INTERNATIONAL AIRPORT,NT,-12.4101,130.8768,131
4319,27-02-2012 10:30,KATHERINE AIRFIELD,NT,-14.4478,132.2747,0
4320,29-02-2012 02:00,YULARA,NT,-25.25,130.9667,53
4321,02-03-2012 15:30,LAJAMANU,NT,-18.3375,130.6334,105
4704,29-01-2012 03:30,EMU PARK,QLD,-23.2593,150.8238,0
4705,29-01-2012 04:15,ROCKHAMPTON,QLD,-23.3781,150.5136,0
4706,29-01-2012 04:20,HUMEBURN,QLD,-27.4123,145.2781,0
4707,29-01-2012 00:00,SPRINGSURE,QLD,-24.1162,148.0886,0
4708,27-01-2012 06:00,OYSTER CREEK,QLD,-24.4262,151.8622,0
4709,27-01-2012 17:55,BRIBIE ISLAND,QLD,-26.95,153.1167,0
4710,27-01-2012 17:55,CABOOLTURE,QLD,-27.0851,152.9513,0
4711,26-01-2012 16:50,DYSART,QLD,-22.5854,148.3461,0
4712,26-01-2012 14:30,MUSKET FLAT,QLD,-25.5,152.35,0
4713,26-01-2012 23:20,CHERWELL,QLD,-25.2667,152.4667,0
4714,25-01-2012 15:15,STUART CREEK,QLD,-19.2833,146.8333,0
4715,25-01-2012 16:25,NELLY BAY,QLD,-19.1651,146.8517,0
4716,25-01-2012 15:05,CLUDEN,QLD,-19.311,146.8303,0
4717,25-01-2012 16:50,PICNIC BAY,QLD,-19.1818,146.8411,0
4718,25-01-2012 15:25,TOWNSVILLE,QLD,-19.2598,146.817,0
4719,25-01-2012 10:35,THOMSON RIVER,QLD,-25.1667,142.8833,0
4720,25-01-2012 00:00,VIRGINIA,QLD,-27.3762,153.065,0
4721,25-01-2012 14:45,BLACK RIVER,QLD,-19.2667,146.6,0
4722,24-01-2012 11:30,BALONNE,QLD,-27.2333,148.85,0
4723,24-01-2012 01:40,MAROOCHYDORE,QLD,-26.6554,153.0933,0
4724,24-01-2012 06:05,MAROOCHYDORE,QLD,-26.6554,153.0933,0
4725,24-01-2012 10:10,NAMBOUR,QLD,-26.627,152.9591,0
4726,24-01-2012 10:10,WEST WOOMBYE,QLD,-26.6623,152.9261,0
4727,24-01-2012 22:00,PIMPAMA,QLD,-27.8026,153.3344,0
4728,24-01-2012 22:30,HOTHAM CREEK,QLD,-27.8,153.3167,0
4729,24-01-2012 22:10,NORWELL,QLD,-27.7667,153.3,0
4730,25-01-2012 15:00,STUART CREEK,QLD,-23.4833,150.3167,0
4731,25-01-2012 15:00,CLUDEN,QLD,-19.311,146.8303,0
4732,22-01-2012 11:00,HUGHENDEN,QLD,-20.8549,144.19,0
4733,22-01-2012 12:05,ST ANNES CREEK,QLD,-20.9833,146.9,0
4734,22-01-2012 13:40,EAGLEFIELD CREEK,QLD,-21.6833,147.3833,0
4735,21-01-2012 05:10,MOUNT GLORIOUS,QLD,-27.3333,152.7667,0
4736,21-01-2012 00:00,CEDAR CREEK,QLD,-27.35,152.9167,0
4737,18-01-2012 00:00,LUCINDA,QLD,-18.5329,146.3347,0
4738,18-01-2012 05:25,GUNNAWARRA,QLD,-17.8887,145.0733,0
4739,15-01-2012 06:30,MACKAY,QLD,-21.1412,149.1858,0
4740,15-01-2012 00:00,ALBERTS CREEK,QLD,-15.0833,143.2333,0
4741,29-02-2012 03:40,SOUTH YAAMBA,QLD,-23.199,150.4005,0
4742,29-02-2012 18:20,HUMEBURN,QLD,-27.4333,145.15,0
4743,24-02-2012 12:30,MAROOCHY RIVER,QLD,-26.582,153.0177,0
4744,24-02-2012 12:40,EUMUNDI,QLD,-26.4801,152.9519,0
4745,24-02-2012 12:40,EERWAH VALE,QLD,-26.4817,152.9094,0
4746,24-02-2012 12:00,DOONAN CREEK,QLD,-26.5,153.0667,0
4747,24-02-2012 12:35,GYMPIE,QLD,-26.1901,152.6655,0
4748,24-02-2012 12:35,COOROY CREEK,QLD,-26.4,152.9,0
4749,24-02-2012 14:05,COORAN,QLD,-26.3354,152.823,0
4750,24-02-2012 15:20,ZACHARIAH CREEK,QLD,-26.3667,152.6167,0
4751,24-02-2012 01:20,POMONA,QLD,-26.3626,152.8564,0
4752,24-02-2012 01:20,COOROIBAH CREEK,QLD,-26.3667,153.0167,0
4753,24-02-2012 02:00,TEWANTIN,QLD,-26.3917,153.0386,218
4754,24-02-2012 02:00,NOOSA,QLD,-26.3,152.9333,250
4755,24-02-2012 12:35,TINBEERWAH,QLD,-26.3833,152.9667,0
4756,23-02-2012 16:25,DAWSON CREEK,QLD,-21.5,149.35,0
4757,22-02-2012 07:55,CONNORS RIVER,QLD,-22.65,149.0667,0
4758,21-02-2012 04:50,COORANGA,QLD,-26.8667,151.1667,0
4759,21-02-2012 06:55,CLONCURRY,QLD,-20.5152,140.4029,0
4760,21-02-2012 06:55,BOREEN POINT,QLD,-26.2851,152.9983,0
4761,13-02-2012 00:00,MARSDEN,QLD,-27.6734,153.0969,0
4762,13-02-2012 06:00,SLACKS CREEK,QLD,-27.6487,153.1511,0
4763,13-02-2012 06:15,MOUNT COTTON,QLD,-27.6167,153.2167,0
4764,12-02-2012 07:00,MOUNT TAMBORINE,QLD,-27.9726,153.1977,0
4765,12-02-2012 07:00,NAMBOUR,QLD,-26.627,152.9591,0
4766,12-02-2012 00:00,SUNSHINE COAST,QLD,-26.5,153,0
4767,11-02-2012 00:00,VIRGINIA,QLD,-27.3762,153.065,0
4768,01-02-2012 05:50,OONDOOROO CREEK,QLD,-22.45,143.2167,0
4769,27-01-2012 07:30,GODWIN BEACH,QLD,-27.0848,153.1133,0
4770,29-01-2012 06:20,HUMEBURN,QLD,-27.4123,145.2781,0
4771,28-01-2012 10:55,GLENORA,QLD,-19.0333,142.85,0
4772,28-01-2012 11:10,COWLEY,QLD,-17.6815,146.0547,0
4773,25-03-2012 12:10,TULLY RIVER,QLD,-18.0333,146.05,0
4774,22-03-2012 06:30,BUNDILLA CREEK,QLD,-27.9333,144.2167,0
4775,22-03-2012 06:55,MAROOCHYDORE,QLD,-26.6554,153.0933,0
4776,22-03-2012 07:20,PARREARRA,QLD,-26.7109,153.1219,0
4777,21-03-2012 23:00,BEE CREEK,QLD,-18.2167,144.2,0
4778,20-03-2012 02:00,GREENMOUNT,QLD,-21.1667,149.05,0
4779,20-03-2012 11:00,MIRANI,QLD,-21.1601,148.8686,0
4780,20-03-2012 02:00,"VINCE,MOUNT,MT",QLD,-22.25,148.95,0
4781,19-03-2012 05:45,BARRON CREEK,QLD,-14.7,142.55,0
4782,19-03-2012 05:30,STOKES CREEK,QLD,-22.2833,144.3167,0
4783,19-03-2012 12:30,SOUTH MISSION BEACH,QLD,-17.9435,146.0928,0
4784,19-03-2012 12:40,BOWEN,QLD,-20.1309,148.1814,0
4785,19-03-2012 12:40,BRINSMEAD,QLD,-16.8999,145.7158,0
4786,19-03-2012 12:40,CAIRNS,QLD,-22.6167,148.25,0
4788,18-03-2012 06:05,BARRON,QLD,-16.864,145.7111,0
4789,18-03-2012 05:50,FLAGGY CREEK,QLD,-27.9,152.2667,0
4790,17-03-2012 05:35,MOUNT MOWBULLAN,QLD,-26.8854,151.5972,0
4791,07-03-2012 08:55,COORANGA,QLD,-26.8667,151.1667,0
4792,07-03-2012 01:10,HALIFAX,QLD,-18.5829,146.3178,0
4793,05-03-2012 23:00,TIARO,QLD,-25.7223,152.5818,0
4794,05-03-2012 00:00,TEDDINGTON WEIR,QLD,-25.65,152.6667,317
4795,05-03-2012 16:40,MUSKET FLAT,QLD,-25.5,152.35,0
4796,05-03-2012 16:55,CHERWELL,QLD,-25.279,152.4872,0
4797,05-03-2012 21:35,MARY RIVER,QLD,-25.4333,152.9333,0
4798,05-03-2012 21:30,TEDDINGTON WEIR,QLD,-25.65,152.6667,0
4799,05-03-2012 19:50,NOOSA RIVER,QLD,-26.3833,153.0833,0
4800,05-03-2012 21:25,WOLVI,QLD,-26.1833,152.8667,270
4801,05-03-2012 23:40,BOREEN POINT,QLD,-26.2851,152.9983,0
4802,17-11-2012 10:20,ATKINSONS DAM,QLD,-27.432,152.4511,0
4803,17-11-2012 11:21,LAKE MANCHESTER,QLD,-27.4734,152.7177,0
4804,17-11-2012 09:10,HELIDON,QLD,-27.5504,152.1261,0
4805,17-11-2012 11:05,LAKE CLARENDON,QLD,-27.5131,152.3603,0
4806,17-11-2012 10:00,BUARABA,QLD,-27.3833,152.3167,0
4807,17-11-2012 11:00,Pohlman Range,QLD,-27.5278,152.2991,0
4808,17-11-2012 11:00,GREGORS CREEK,QLD,-26.982,152.4177,0
4809,28-12-2012 08:00,TIARO,QLD,-25.7237,152.5836,0
4810,28-12-2012 06:05,KILCOY,QLD,-26.9431,152.5652,0
4811,25-12-2012 21:00,INGHAM,QLD,-18.651,146.1572,0
4812,25-12-2012 13:30,ELBOW VALLEY,QLD,-28.3845,152.2075,0
4813,21-12-2012 07:55,GLENARBON WEIR,QLD,-28.7,150.8833,0
4814,21-12-2012 08:50,BOOBA SANDS,QLD,-28.5667,150.85,0
4815,21-12-2012 04:35,NINDOOINBAH,QLD,-28.054,153.0689,0
4816,21-12-2012 00:00,BEAUDESERT,QLD,-28.05,152.9833,0
4817,21-12-2012 07:10,RAVENSBOURNE,QLD,-27.3487,152.1511,0
4818,17-12-2012 07:10,MOUNT ISA,QLD,-20.726,139.494,0
4819,12-01-2013 12:10,WEIR RIVER,QLD,-27.7165,150.6539,0
4820,15-01-2013 00:00,CHARLEVILLE,QLD,-26.4018,146.2384,0
4821,28-11-2012 17:15,Tennant Creek,NT,-19.6,134.2,0
4822,01-12-2012 06:37,Alice Springs,NT,-23.8045,133.9037,0
4823,11-02-2013 23:00,DARWIN INTERNATIONAL AIRPORT,NT,-12.4101,130.8768,0
4824,30-10-2012 05:10,GRAFTON AIRPORT,NSW,-29.7484,153.0345,0
4825,17-11-2012 09:30,COFFS HARBOUR AIRPORT,NSW,-30.3151,153.1178,160
4826,25-11-2012 05:20,WOLLOMOMBI,NSW,-30.5151,152.0511,0
4827,27-11-2012 09:10,BLACKHEATH,NSW,-33.6317,150.2846,0
4828,03-12-2012 04:00,SOUTH TAMWORTH,NSW,-31.1095,150.9147,0
4829,09-12-2012 06:27,OGUNBIL,NSW,-31.3401,151.2845,0
4830,23-12-2012 07:00,WARRAGAMBA,NSW,-33.8817,150.6012,0
4831,25-12-2012 07:25,STONEY CREEK,NSW,-35.3,148.9667,0
4832,25-12-2012 03:55,CASSILIS,NSW,-32.0067,149.9846,0
4833,25-12-2012 04:40,MOUNT PALMER,NSW,-31.8317,150.3511,0
4834,25-12-2012 05:40,MURRURUNDI,NSW,-31.8151,150.7345,0
4835,25-12-2012 06:25,NUNDLE,NSW,-31.4651,151.1345,0
4836,25-12-2012 02:40,BATHURST AIRPORT,NSW,-33.3984,149.7512,0
4837,25-12-2012 02:30,MUDGEE AIRPORT,NSW,-32.5484,149.6012,0
4838,28-12-2012 03:45,KUNGHUR,NSW,-28.4651,153.2428,0
4839,19-01-2013 05:00,ARMIDALE,NSW,-30.5437,151.62,0
4840,19-01-2013 04:45,ARMIDALE AIRPORT,NSW,-30.5317,151.6178,0
4841,22-01-2013 03:20,BATHURST,NSW,-33.4167,149.5807,0
4842,22-01-2013 03:10,BOWRAL,NSW,-34.4817,150.4179,0
4843,26-01-2013 08:30,TUGGERANONG,NSW,-35.4317,149.1512,0
4844,01-02-2013 01:25,SPRING CREEK,NSW,-33.3651,149.1012,0
4845,01-02-2013 02:33,DUNGOG,NSW,-32.3817,151.8345,0
4846,01-02-2013 02:46,CABBAGE TREE MOUNTAIN,NSW,-32.2567,152.1178,0
4847,01-02-2013 05:40,WYONG RIVER,NSW,-33.2484,151.3345,0
4848,12-02-2013 04:50,BOONANGHI,NSW,-31.0484,152.5678,0
4849,12-02-2013 04:50,WITTITRIN,NSW,-31.0984,152.6511,0
4850,25-02-2013 05:40,SCONE,NSW,-32.0317,150.8845,0
4851,26-02-2013 08:10,ORANGE,NSW,-33.2817,149.1012,0
4852,27-02-2013 03:00,CABRAMURRA,NSW,-35.9652,148.5012,0
4853,27-02-2013 06:25,NERRIGA,NSW,-35.1317,150.1179,0
4854,28-11-2012 06:30,GLEN INNES AIRPORT,NSW,-29.6651,151.6845,0
4855,12-06-2013 05:15,WILLINA,NSW,-32.1609,152.2626,0
4856,14-02-2013 16:00,BRIGHT,VIC,-36.727,146.9619,0
4857,14-02-2013 15:00,Gisborne,VIC,-37.4681,144.5643,0
4858,14-02-2013 06:00,BALLARAT AIRFIELD,VIC,-37.5106,143.7923,0
4859,26-02-2013 14:00,BRIGHT,VIC,-36.727,146.9619,0
4860,27-02-2013 16:00,WALLAN,VIC,-37.4146,144.9773,0
4861,27-02-2013 19:00,SHEPPARTON,VIC,-36.3818,145.4024,0
4862,05-01-2011 07:00,MERREDIN,WA,-31.4828,118.2856,0
4863,10-02-2011 22:00,NUNGARIN,WA,-31.1867,118.1011,72
4864,11-02-2011 01:00,MADOONGA,WA,-26.9342,117.5936,150
4865,12-02-2011 00:00,DENHAM,WA,-25.9267,113.5342,0
4866,12-02-2011 00:00,MARDIE,WA,-21.1897,115.9792,0
4867,16-02-2011 01:00,LAVERTON,WA,-28.6233,122.4011,120
4868,16-02-2011 01:00,YUNDAMINDRA,WA,-29.25,122.1039,126
4869,28-02-2011 07:00,MUNDARING,WA,-31.8972,116.1711,82
4870,21-03-2011 12:00,TOODYAY,WA,-31.5514,116.4639,0
4871,16-09-2013 17:00,PENOLA,SA,-37.3771,140.8376,51
4872,12-07-2012 14:00,ROWLAND FLAT,SA,-34.5799,138.9253,0
4873,12-07-2012 14:30,MOUNT ADAMS,SA,-30.0992,139.5162,0
4874,12-07-2012 16:50,EDEN HILLS,SA,-35.0211,138.5955,0
4875,12-07-2012 17:30,BIRDWOOD,SA,-34.8192,138.9645,0
4876,02-10-2011 05:30,WONGAN HILLS,WA,-30.8936,116.7186,53
4877,08-10-2011 09:15,DONNYBROOK,WA,-33.5767,115.8214,0
4878,12-10-2011 05:48,SALMON GUMS,WA,-32.9803,121.6447,0
4879,26-10-2011 06:30,GERALDTON,WA,-28.7792,114.6144,48
4880,15-02-2013 19:38,CUDLEE CREEK,SA,-34.8409,138.8282,0
4881,27-02-2013 00:00,BELTANA,SA,-30.8118,138.4121,54
4882,27-02-2013 00:00,THE PLATEAU,SA,-30.4656,139.042,53
4883,27-02-2013 00:00,ARCOONA BLUFF,SA,-30.4269,138.9865,48
4884,27-02-2013 00:00,MAYNARDS WELL,SA,-30.6114,138.6897,37
4885,27-02-2013 00:00,ARKAROOLA,SA,-30.3312,139.3712,34
4886,27-02-2013 00:00,LEIGH CREEK AERODROME,SA,-30.4601,138.4121,33
4887,07-03-2013 00:00,COLES POINT,SA,-34.368,135.3505,0
4888,07-03-2013 00:00,COULTA,SA,-34.3847,135.4681,54
4889,07-03-2013 00:00,LOCK,SA,-33.5669,135.7555,45
4890,31-05-2013 00:00,NITSCHKE HILL,SA,-34.8829,138.8711,0
4891,31-05-2013 00:00,MILLBROOK RESERVOIR,SA,-34.8293,138.8144,105
4892,31-05-2013 00:00,LENSWOOD,SA,-34.9182,138.8326,105
4893,31-05-2013 00:00,BUCKLAND PARK,SA,-34.6859,138.5169,0
4894,15-11-2013 12:30,Shellharbour,NSW,-34.565,150.851,0
4895,15-11-2013 11:50,Woy Woy,NSW,-33.932,151.21,0
4896,22-11-2013 03:45,Campbelltown,NSW,-34.0686,150.8131,0
4897,10-11-2013 06:55,Molong,NSW,-33.003,148.911,0
4898,10-11-2013 19:50,Newcastle,NSW,-32.953,151.741,0
4899,10-11-2013 19:30,Newcastle,NSW,-32.944,151.711,0
4900,10-11-2013 19:35,Newcastle,NSW,-32.921,151.73,0
4901,10-11-2013 19:30,Newcastle,NSW,-32.932,151.69,0
4902,11-11-2013 04:30,Sawtell,NSW,-30.367,153.095,0
4903,11-11-2013 04:25,Coffs Harbour,NSW,-30.304,153.054,0
4904,13-11-2013 05:35,Minnie Waters,NSW,-29.7847,153.2639,0
4905,14-11-2013 03:40,Yamba,NSW,-29.421,153.287,0
4906,27-10-2011 05:30,SCADDAN,WA,-33.4439,121.7258,0
4907,31-10-2011 00:00,DOOLGUNNA,WA,-25.69,119.2233,50
4908,01-11-2011 00:00,COSSACK,WA,-20.6783,117.1886,97
4909,03-11-2011 04:30,BOKAL,WA,-33.44,116.9036,0
4910,03-11-2011 08:00,BROOKTON,WA,-32.3708,117.0131,0
4911,03-11-2011 06:00,ALBANY AERODROME,WA,-34.9442,117.8072,58
4912,16-11-2013 08:40,COUCHY CREEK,NSW,-28.2651,153.2845,0
4913,22-11-2013 02:40,BEN BULLEN,NSW,-33.2151,150.0179,0
4914,21-11-2013 22:00,BLACKVILLE,NSW,-31.6317,150.2345,0
4915,22-11-2013 21:30,MURRURUNDI,NSW,-31.8151,150.7345,0
4916,23-11-2013 03:05,SCONE,NSW,-32.0317,150.8845,0
4917,23-11-2013 03:30,NARRABRI,NSW,-30.3317,149.7678,0
4918,04-11-2011 04:05,LEINSTER,WA,-27.9203,120.6967,34
4919,20-02-2011 00:00,MOUNT VERNON,WA,-24.2297,118.2383,64
4920,06-12-2011 01:00,HYDEN,WA,-32.4492,118.9108,105
4921,06-12-2011 01:00,NAREMBEEN,WA,-32.0628,118.3944,87
4922,12-12-2011 01:00,WILLIAMS,WA,-33.0247,116.8814,126
4923,16-12-2013 08:00,MERRIWA,NSW,-32.1317,150.3511,0
4924,16-02-2014 09:35,BOWRAVILLE,NSW,-30.6317,152.8642,0
4925,18-02-2014 04:45,GLENDOWER MOUNTAIN,NSW,-31.1484,151.2345,0
4926,18-02-2014 05:00,YARROWITCH,NSW,-31.2484,152.0011,0
4927,18-02-2014 06:03,BENDEMEER,NSW,-30.8817,151.1511,0
4928,31-12-2011 01:00,Katanning,WA,-32.6581,116.5519,60
4929,19-02-2014 03:30,TUGGERANONG,NSW,-35.4317,149.1512,0
4930,19-02-2014 03:30,NEWCASTLE,NSW,-32.9317,151.7845,0
4931,18-01-2012 01:00,BERKSHIRE VALLEY,WA,-30.5481,116.1358,61
4932,06-03-2014 04:48,OBERON,NSW,-33.6984,149.8679,0
4933,07-03-2014 03:07,LITHGOW,NSW,-33.4817,150.1512,0
4934,07-03-2014 03:31,HIGH RANGE,NSW,-34.3651,150.3179,0
4935,07-03-2014 05:34,ABBOTSBURY,NSW,-33.8651,150.8512,0
4936,20-01-2012 00:00,MINGAH SPRINGS,WA,-24.9472,118.7106,99
4937,20-01-2012 00:00,CHIDLOW,WA,-31.8572,116.2719,86
4938,19-01-2012 20:20,SERPENTINE,WA,-32.3744,115.9964,61
4939,19-01-2012 20:20,SERPENTINE,WA,-32.3744,115.9964,61
4940,19-01-2012 20:45,JARRAHDALE,WA,-32.3375,116.0608,61
4941,19-01-2012 19:00,MANDURAH,WA,-32.5294,115.7233,57
4942,05-11-2013 00:00,DARWIN BOTANIC GARDENS,NT,-12.447,130.8352,0
4943,29-01-2014 16:00,GUNN POINT,NT,-12.1718,130.9943,166
4944,18-03-2014 18:00,YAMBA,NSW,-29.4317,153.3595,0
4945,20-03-2014 03:30,GRAFTON AIRPORT,NSW,-29.7484,153.0345,0
4946,22-03-2014 06:50,LAKE NEPEAN,NSW,-34.3651,150.5846,0
4950,24-03-2014 08:20,ALBION PARK,NSW,-34.5817,150.7762,0
4951,24-03-2014 12:18,BALGOWNIE,NSW,-34.3901,150.8762,0
4952,24-03-2014 12:58,BARRENGARRY,NSW,-34.7151,150.5346,0
4953,29-03-2014 07:05,ROSSI,NSW,-35.4651,149.5012,0
4954,30-03-2014 08:35,RICHMOND NORTH,NSW,-33.5867,150.7112,0
4956,03-04-2014 08:15,LAKE NEPEAN,NSW,-34.3651,150.5846,0
4957,03-04-2014 12:35,NEWBRIDGE,NSW,-33.5651,149.3679,0
4958,04-04-2014 05:20,CAREYS PEAK,NSW,-32.0484,151.4511,0
4959,04-04-2014 07:00,NUNDLE,NSW,-31.4651,151.1345,0
4960,06-04-2014 01:17,EVANS HEAD,NSW,-29.1151,153.4345,0
4961,06-04-2014 03:30,ROUS RIVER,NSW,-28.2984,153.2678,0
4962,24-04-2014 22:00,NABIAC,NSW,-32.0984,152.3845,0
4963,14-03-2014 04:00,WOOLBROOK,NSW,-30.9651,151.3511,0
4965,24-03-2014 03:00,BOTANY,NSW,-33.9484,151.2012,0
4966,24-03-2014 03:40,CRONULLA,NSW,-34.0484,151.1512,0
4967,24-03-2014 03:40,AUDLEY,NSW,-34.0817,151.0512,0
4968,24-03-2014 04:45,LUCAS HEIGHTS,NSW,-34.0151,151.0012,0
4969,24-03-2014 03:19,LITTLE BAY,NSW,-33.9817,151.2429,0
4970,30-03-2014 09:35,BOX HILL,NSW,-33.6651,150.8846,0
4971,22-10-2013 07:20,HAVEN PUBLIC HALL,VIC,-36.7426,142.194,0
4972,20-02-2012 00:00,Koorda,WA,-30.83,117.48,0
4973,22-02-2012 00:00,MINILYA BRIDGE,WA,-23.8161,114.0103,0
4974,24-02-2012 00:00,KUNUNURRA AERODROME,WA,-15.7844,128.7133,55
4975,28-02-2012 00:00,CUBALLING,WA,-32.8206,117.1586,51
4976,28-02-2012 18:00,MOUNT PARABURDOO,WA,-23.2272,117.6678,66
4977,25-02-2015 09:00,NINGHAN,WA,-30.1653,117.5847,77
4978,31-05-2012 00:00,WALPOLE,WA,-34.9781,116.7331,70
4979,10-06-2012 00:00,NABAWA,WA,-28.4997,114.7894,72
4980,12-06-2012 00:00,DONNYBROOK,WA,-33.5767,115.8214,51
4981,04-09-2012 00:00,BICKLEY,WA,-32.0081,116.0906,67
4982,01-11-2012 00:00,BADGINGARRA,WA,-30.3986,115.5542,0
4983,09-11-2012 01:00,BADGINGARRA,WA,-30.3986,115.5542,65
4984,16-11-2012 01:00,MOUNT HART,WA,-16.9225,125.065,50
4985,18-11-2012 00:00,WYNDHAM AERODROME,WA,-15.5053,128.1519,63
4986,03-12-2012 00:00,NULLAGINE,WA,-21.8897,120.1114,83
4987,13-12-2012 00:00,COLLIE,WA,-33.3539,116.1522,157
4988,14-01-2013 11:24,MANJIMUP,WA,-34.2406,116.1461,0
4989,17-01-2013 00:00,BEDFORD DOWNS,WA,-17.2614,127.4642,84
4990,15-01-2013 00:00,Amrista Park,WA,-17.2614,127.4642,0
4991,18-01-2013 00:00,TRUSCOTT AIR BASE,WA,-14.0861,126.3783,115
4992,19-01-2013 00:00,ELGEE CLIFFS,WA,-16.9606,127.4564,106
4993,21-01-2013 00:00,MARBLE BAR,WA,-21.1864,119.7114,69
4994,15-02-2013 00:00,MOUNT ELIZABETH,WA,-22.6797,115.9342,93
4995,17-02-2013 00:00,PHILLIPS RANGE,WA,-16.8747,125.8075,62
4996,01-03-2013 00:00,LORNA GLEN,WA,-26.2269,121.5597,108
4997,02-03-2013 00:00,Kalgoorlie boulder A,WA,0,0,88
4998,05-03-2013 00:00,MOUNT WINIFRED,WA,-18.0542,126.2817,86
4999,11-03-2013 00:00,CHARNLEY RIVER,WA,-16.3733,124.9544,76
5000,15-03-2013 00:00,MOUNT HELENA,WA,-31.875,116.2083,51
5001,07-05-2013 00:00,BUSSELTON,WA,-33.6614,115.3511,101
5002,20-05-2013 00:00,SALMON GUMS,WA,-32.9803,121.6447,54
5003,26-05-2013 11:30,EXMOUTH,WA,-21.9569,114.1164,106
5004,15-07-2013 00:00,WITCHCLIFFE,WA,-34.025,115.1003,99
5005,23-07-2013 00:00,HARVEY,WA,-33.0778,115.8944,66
5006,25-07-2013 00:00,DWELLINGUP,WA,-32.7111,116.0633,52
5007,08-08-2013 00:00,BICKLEY,WA,-32.0081,116.0906,80
5008,15-08-2013 00:00,TEDS POOL,WA,-34.7636,116.6158,73
5009,22-11-2012 00:00,MARGARET GORGE,WA,-18.2606,126.3011,107
5010,03-12-2013 00:00,Liamma Bore,WA,-18.2606,126.3011,77
5011,05-12-2013 00:00,DIMOND GORGE,WA,-17.6489,126.0261,0
5012,06-12-2013 00:00,WATERLOO BORE,WA,-27.5889,115.7306,56
5013,10-12-2013 00:00,MEEKATHARRA,WA,-26.5911,118.4967,49
5014,22-12-2013 00:00,WYNDHAM,WA,-15.4864,128.1203,165
5015,01-01-2014 00:00,KAMBALDA,WA,-31.2025,121.6681,70
5016,12-12-2014 00:00,LATHAM,WA,-29.7567,116.4447,117
5017,21-01-2014 00:00,MINGAH SPRINGS,WA,0,0,183
5018,21-01-2014 00:00,BROOME AIRPORT,WA,-17.9508,122.2336,170
5019,22-01-2014 00:00,EDJUDINA,WA,-29.4153,122.5847,127
5020,24-01-2014 00:00,RAWLINNA Depot,WA,-30.7756,125.44,85
5021,27-01-2014 00:00,LARRAWA,WA,-18.8381,126.5244,85
5022,02-02-2014 00:00,MOUNT MAGNET,WA,-28.0625,117.8481,59
5023,05-02-2014 00:00,MOUNT WINIFRED,WA,-18.0542,126.2817,89
5025,05-11-2014 04:45,PENRITH,NSW,-33.7484,150.7512,0
5026,19-11-2014 03:30,COUCHY CREEK,NSW,-28.2651,153.2845,0
5027,14-10-2014 12:00,CANTERBURY,NSW,-33.9151,151.1179,0
5028,05-11-2014 04:45,CABRAMATTA WEST,NSW,-33.8901,150.9096,0
5029,19-11-2014 12:00,WOOLI WOOLI RIVER,NSW,-29.967,153.1484,0
5030,26-11-2014 03:18,NASHUA,NSW,-28.7317,153.4678,0
5031,01-12-2014 16:10,GOULBURN AIRPORT,NSW,-34.8151,149.7179,0
5032,03-12-2014 04:35,SMALLWOODS CROSSING,NSW,-34.1429,150.4251,0
5033,03-12-2014 05:45,GREYSTANES,NSW,-33.8151,150.9346,0
5034,03-12-2014 05:45,PROSPECT RESERVOIR,NSW,-33.8234,150.8846,0
5035,03-12-2014 05:45,SEVEN HILLS,NSW,-33.7762,150.9429,0
5036,03-12-2014 05:50,TOONGABBIE,NSW,-33.7651,150.9679,0
5037,03-12-2014 05:45,SPRINGWOOD,NSW,-33.6984,150.5679,0
5038,05-12-2014 02:15,DORRIGO,NSW,-30.3317,152.7178,0
5039,05-12-2014 05:00,RICHMOND AERODROME,NSW,-33.5984,150.7679,0
5040,05-12-2014 06:35,JERANGLE,NSW,-35.8817,149.3679,0
5041,05-12-2014 08:30,NEWCASTLE,NSW,-32.9317,151.7845,0
5042,27-04-2014 00:00,EXMOUTH,WA,-21.9569,114.1164,206
5043,26-04-2014 00:00,CORRIGIN,WA,-32.3272,117.8747,83
5044,08-05-2014 00:00,LEARMONTH AERODROME,WA,-22.2317,114.0872,94
5045,06-12-2014 06:08,KINGS LANGLEY,NSW,-33.7484,150.9179,0
5046,06-12-2014 06:08,PARRAMATTA,NSW,-33.8151,151.0012,0
5047,06-12-2014 06:45,MAROOTA,NSW,-33.4567,150.9929,0
5048,18-05-2014 00:00,PEMBERTON,WA,-34.4461,116.0356,82
5049,20-05-2014 00:00,DARDANUP,WA,-33.4003,115.7539,66
5050,21-05-2014 00:00,RIVERDALE,WA,-31.8411,116.6744,81
5051,23-05-2014 00:00,HARVEY CREEK,WA,-28.3484,152.5011,58
5052,06-07-2014 00:00,WORSLEY,WA,-33.3069,116.0067,72
5053,13-07-2014 00:00,LOMBADINA POINT,WA,-16.5386,122.8175,199
5054,22-07-2014 00:00,WILYABRUP,WA,-33.7956,115.0461,52
5055,26-08-2014 00:00,CAPEL RIVER NORTH,WA,-33.6517,115.7514,45
5056,29-08-2014 00:00,DONNYBROOK,WA,-33.5767,115.8214,108
5057,07-12-2014 05:40,BAULKHAM HILLS,NSW,-33.7595,151.0012,0
5058,25-12-2014 05:05,PICTON,NSW,-34.1651,150.6512,0
5059,21-09-2014 00:00,MOUNTAIN BRIDGE,WA,-29.2356,115.0339,68
5060,18-10-2014 00:00,PERTH,WA,-31.9519,115.8586,0
5061,08-11-2014 00:00,ELGEE CLIFFS,WA,-16.9606,127.4564,60
5062,26-11-2014 00:00,GERALDTON,WA,-28.7792,114.6144,0
5063,27-11-2014 00:00,KONDININ,WA,-32.4936,118.2678,39
5064,20-12-2014 00:00,DIGGERS REST,WA,-33.5228,121.9622,121
5065,30-01-2015 00:00,ELLENDALE,WA,-17.9269,124.8119,83
5066,11-12-2014 00:05,WITTITRIN,NSW,-31.0984,152.6511,0
5067,11-12-2014 01:05,COFFS HARBOUR,NSW,-30.3151,153.1345,0
5068,25-11-2014 03:45,THORA,NSW,-30.4317,152.0345,0
5069,26-11-2014 02:15,UKI,NSW,-28.4234,153.3261,0
5070,01-12-2014 04:30,YARRAS,NSW,-31.4651,152.3345,0
5071,01-12-2014 07:15,BAERAMI,NSW,-32.3817,150.4679,0
5072,04-12-2014 01:40,BOWRAVILLE,NSW,-30.6317,152.8642,0
5073,22-12-2014 04:15,ARALUEN,NSW,-35.6484,149.8179,0
5074,22-12-2014 04:05,ARALUEN,NSW,-35.6484,149.8179,0
5075,23-12-2014 02:35,BUNDANOON,NSW,-34.6556,150.2996,0
5076,24-12-2014 02:45,YARRAS,NSW,-31.4651,152.3345,0
5077,25-12-2014 08:34,MILBRODALE,NSW,-32.6984,151.0095,0
5078,26-12-2014 06:58,TURNERS FLAT,NSW,-31.0151,152.7011,0
5079,26-12-2014 07:20,PILLAR VALLEY,NSW,-29.7651,153.1178,0
5080,31-12-2014 15:20,GLENREAGH,NSW,-30.0484,152.9845,0
5081,31-12-2014 15:20,GOONENGERRY,NSW,-28.5984,153.4345,0
5082,02-01-2015 05:20,BEN BULLEN,NSW,-33.2151,150.0179,0
5083,04-01-2015 06:00,NOWRA,NSW,-34.8817,150.6012,0
5084,04-01-2015 07:00,BARRENGARRY,NSW,-34.7151,150.5346,0
5085,04-01-2015 06:40,BONYTHON,NSW,-35.4333,149.0833,0
5086,09-01-2015 03:15,MERRIWA,NSW,-32.122,150.3303,0
5087,09-01-2015 06:15,BLACKTOWN,NSW,-33.7706,150.9068,0
5088,09-01-2015 06:15,TOONGABBIE,NSW,-33.7651,150.9679,0
5089,09-01-2015 08:25,ULLADULLA,NSW,-35.3484,150.4679,0
5090,09-01-2015 08:50,NERRIGA,NSW,-35.1317,150.1179,0
5091,19-01-2015 08:15,COFFS HARBOUR AIRPORT,NSW,-30.3151,153.1178,0
5092,19-01-2015 10:55,POTTSVILLE,NSW,-28.3984,153.5511,0
5093,19-01-2015 11:30,KEMPSEY AIRPORT,NSW,-31.0651,152.7678,0
5094,19-01-2015 14:20,MULLUMBIMBY,NSW,-28.5484,153.5011,0
5095,19-01-2015 17:30,CAPE BYRON,NSW,-28.6387,153.6361,0
5096,19-01-2015 00:53,KRAMBACH,NSW,-32.0484,152.2678,0
5097,20-01-2015 04:43,HARRINGTON,NSW,-31.8651,152.6845,0
5098,20-01-2015 05:00,WOOLBROOK,NSW,-30.9651,151.3511,0
5099,20-01-2015 09:27,COLLOMBATTI,NSW,-30.8909,152.7147,0
5100,25-02-2015 08:25,WICKEPIN,WA,-32.7803,117.5053,0
5101,26-02-2015 00:00,KONDININ,WA,-32.4936,118.2678,28
5102,28-02-2015 00:00,MOUNT NEWMAN,WA,-28.5008,121.09,100
5103,02-03-2015 00:00,YAKABINDIE,WA,-27.5756,120.5297,108
5104,03-03-2015 00:00,Faraway Bay,WA,0,0,110
5105,03-03-2015 00:00,MINGAH SPRINGS,WA,-24.9472,118.7106,121
5106,07-03-2015 00:00,PARABURDOO,WA,-23.1958,117.7039,56
5107,09-03-2015 00:00,Kimberley,WA,0,0,77
5108,24-02-2015 00:00,TARINA WELL,WA,-26.0075,116.0339,71
5109,31-03-2015 00:00,ONSLOW,WA,-21.6881,115.1353,106
5110,10-04-2015 00:00,PORONGURUP ESTATE,WA,-34.6817,117.8419,88
5111,24-01-2015 03:15,Murrays Flat (Wollondilly River),NSW,-34.7217,149.7933,0
5112,24-01-2015 03:01,Orange (Bloodwood Winery),NSW,-33.15,149.2,0
5113,24-01-2015 06:40,Jingera (Hillside),NSW,-35.7833,149.4167,0
5114,25-01-2015 04:25,Wooli (Browns Knob),NSW,-29.9125,153.1275,0
5115,25-01-2015 08:40,Jiggi (Gwynne St),NSW,-28.676,153.1538,0
5116,26-01-2015 02:01,Inverell,NSW,-29.7752,151.0819,0
5117,27-01-2015 00:00,Pokolbin,NSW,-32.8126,151.3043,0
5118,27-01-2015 02:00,Tangory Mountain,NSW,-32.5553,151.379,0
5119,27-01-2015 01:20,Molong,NSW,-32.9892,148.9318,0
5120,27-01-2015 02:05,Bylong,NSW,-32.471,150.1059,0
5121,27-01-2015 02:40,Gresford,NSW,-32.4266,151.5376,0
5122,27-01-2015 03:00,Nundle,NSW,-31.46,151.13,0
5123,27-01-2015 03:30,Narrabri (Mt Kaputa),NSW,-30.2838,150.1666,0
5124,27-01-2015 05:10,Tingha,NSW,-29.9315,151.2945,0
5125,27-01-2015 05:30,Inverell,NSW,-29.7752,151.0819,0
5126,27-01-2015 06:05,Inverell,NSW,-29.605,151.267,0
5127,01-02-2015 01:00,Nabiac (near Foster),NSW,-32.0873,152.3748,0
5128,01-02-2015 12:50,Wooli,NSW,-29.8919,153.2648,0
5129,12-02-2015 04:55,Gurya,NSW,-29.9465,151.6066,0
5130,25-02-2015 07:25,Ulan,NSW,-32.2807,149.741,0
5131,26-02-2015 07:50,Comboyne,NSW,-31.6061,152.4669,0
5132,08-03-2015 08:25,Woolgoolga,NSW,-30.1052,153.1956,0
5133,09-03-2015 04:30,Grafton,NSW,-29.7583,153.0297,0
5134,11-03-2015 08:30,Guilford,NSW,-33.8661,150.9937,0
5135,13-03-2015 23:00,Clarencetown,NSW,-32.5584,151.8043,0
5136,13-03-2015 01:00,Boambee (Coffs Harbour),NSW,-30.3242,153.0491,0
5137,13-03-2015 01:00,Toormina (Coffs Harbour),NSW,-30.3525,153.0761,0
5138,13-03-2015 01:00,Sawtell (Coffs Harbour),NSW,-30.3667,153.0953,0
5139,13-03-2015 01:30,Bray Street (Coffs Harbour),NSW,-30.2825,153.1219,0
5140,18-03-2015 18:20,Bukkulla (N of Inverell,NSW,-29.5045,151.1293,0
5141,24-03-2015 02:25,Coonabarabran AWS,NSW,-31.333,149.2699,0
5142,24-03-2015 07:35,Wyong (Kangy Angy - Ourimbah ck),NSW,-33.3319,151.3833,0
5143,30-03-2015 08:00,S. of Newcastle,NSW,0,0,0
5144,06-04-2015 04:45,Macquarie College - Newcastle,NSW,-32.9219,151.6514,0
5145,21-04-2015 22:45,Tocal AWS,NSW,-32.6296,151.5919,0
5146,28-04-2015 08:25,Cofs Harbour (Gundagai St),NSW,-30.2939,153.1094,0
5147,29-04-2015 20:55,Wooli River,NSW,-29.8919,153.2648,0
5148,02-05-2015 08:20,Wooli River,NSW,-29.8919,153.2648,0
5149,03-12-2014 07:07,TENNANT CREEK,NT,-19.6511,134.1897,0
5150,23-01-2015 14:30,GUNN POINT,NT,-12.1718,130.9943,188
5151,08-06-2015 12:30,KULGERA AIRSTRIP,NT,-25.8431,133.2929,0
5152,09-01-2015 10:30,ALICE SPRINGS,NT,-23.6994,133.8807,0
5153,20-02-2015 00:00,HUMPTY DOO,NT,-12.5842,131.1258,0
5154,15-01-2014 07:05,HORSHAM,VIC,-36.7146,142.1981,0
5155,16-01-2014 09:40,MILL PARK,VIC,-37.6728,145.061,0
5156,19-02-2014 07:05,GEELONG,VIC,-38.1502,144.3558,0
5157,15-03-2014 12:30,MYRTLEFORD,VIC,-36.5635,146.7262,0
5158,15-03-2014 08:05,WYNDHAM VALE,VIC,-37.8644,144.6013,0
5159,21-03-2014 03:00,SILVER CREEK,VIC,-36.3787,146.7313,0
5160,21-03-2014 06:15,MOUNT BAW BAW,VIC,-37.8398,146.2726,0
5161,21-03-2014 05:50,BRIGHT,VIC,-36.7306,146.9608,0
5162,21-03-2014 07:30,BEECHWORTH,VIC,-36.3642,146.6879,0
5163,27-03-2014 07:00,GEELONG,VIC,-38.1502,144.3558,0
5164,09-09-2014 04:25,ESSENDON,VIC,-37.7531,144.908,0
5165,09-09-2014 03:30,GLEN FORBES,VIC,-38.4593,145.5444,0
5166,01-12-2014 00:00,MOUNT DELEGATE,VIC,-37.1139,148.8965,0
5167,03-12-2014 06:00,KANIVA,VIC,-36.3779,141.2386,0
5168,05-12-2014 07:00,MANSFIELD,VIC,-37.0579,146.0878,0
5169,06-12-2014 04:00,WANGARATTA,VIC,-36.3565,146.3154,0
5170,06-12-2014 04:00,MOORNGAG,VIC,-36.7566,146.0522,0
5171,06-12-2014 04:00,TATONG,VIC,-36.7242,146.247,0
5172,07-12-2014 04:00,STRATFORD,VIC,-37.9682,147.0797,0
5173,03-01-2015 06:00,PORT CAMPBELL,VIC,-38.6208,142.9953,0
5174,07-01-2015 06:20,BLACKBURN,VIC,-37.8203,145.1537,0
5175,07-01-2015 10:08,TYABB,VIC,-38.2615,145.1849,0
5176,07-01-2015 10:08,CERES,VIC,-38.1735,144.2705,0
5177,09-01-2015 08:00,STRATHDALE,VIC,-36.7616,144.3169,0
5178,09-01-2015 08:00,MAIDEN GULLY,VIC,-36.7413,144.2157,0
5179,09-01-2015 08:00,BRIDGEWATER,VIC,-36.6032,143.9436,0
5180,09-01-2015 08:00,Bendigo,VIC,-36.6032,143.9436,0
5181,09-01-2015 08:00,NORTH BENDIGO,VIC,-36.7455,144.2828,0
5182,09-01-2015 08:00,LOCKWOOD SOUTH,VIC,-36.9227,144.1221,0
5183,21-01-2015 07:00,MOUNT BULLER,VIC,-37.1466,146.4246,0
5184,17-02-2015 04:30,MCKILLOP BRIDGE,VIC,-37.0857,148.412,0
5185,23-02-2015 07:00,MYRTLEFORD,VIC,-36.5599,146.7218,0
5186,05-12-2014 08:40,CORAL BANK,VIC,-36.6206,147.085,0
5187,06-12-2014 02:30,WALDARA,VIC,-36.3227,146.2814,0
5188,16-12-2014 03:30,Hobart,TAS,-42.89,147.33,20
5189,16-12-2014 05:59,Hobart,TAS,-42.89,147.33,20
5190,28-02-2015 17:00,MARRARA,NT,-12.404,130.9104,89
5191,10-12-2014 04:30,Brighton,TAS,-42.7,147.26,32
5192,19-12-2011 05:25,Hobart,TAS,-42.89,147.33,32
5193,09-11-2012 00:25,KINGSTON,TAS,-42.98,147.316,0
5194,09-11-2012 00:00,ROKEBY,TAS,-42.9,147.442,0
5195,10-04-2014 06:00,PALMERSTON,NT,-12.4808,130.9841,0
5196,01-12-2014 15:00,TINDAL AIRFIELD,NT,-14.5167,132.3667,76
5197,13-02-2015 06:45,DARWIN INTERNATIONAL AIRPORT,NT,-12.4101,130.8768,0
5198,27-03-2015 00:00,PARAP,NT,-12.434,130.8448,0
5199,13-02-2015 06:30,Ballarat,VIC,-37.5632,143.8554,44
5200,11-10-2015 06:30,Balwyn,VIC,-37.8131,145.0818,0
5201,10-10-2015 08:15,YARRA GLEN,VIC,-37.6631,145.3708,0
5202,13-10-2015 04:30,BRAYS CREEK,NSW,-28.4067,153.1928,0
5203,01-11-2015 03:50,NUMURKAH,VIC,-36.0943,145.436,0
5204,04-11-2015 07:00,MURRAYVILLE,VIC,-35.2663,141.1792,82
5205,05-11-2015 02:15,BULLA,VIC,-37.6377,144.8036,0
5206,05-11-2015 03:15,FLEMINGTON,VIC,-37.7724,144.929,0
5207,05-11-2015 02:30,KEILOR,VIC,-37.6986,144.8237,0
5208,12-11-2015 04:00,GLENCAIRN,VIC,-37.514,146.5474,62
5209,08-12-2015 06:00,CARBOOR UPPER,VIC,-36.6418,146.5453,95
5210,08-12-2015 06:26,EUROBIN,VIC,-36.6404,146.8624,85
5211,08-12-2015 06:15,OVENS,VIC,-36.5906,146.7597,0
5212,17-06-2015 00:00,STEEP POINT,WA,-26.1431,113.1589,132
5213,17-06-2015 00:00,TAMALA,WA,-26.6981,113.7158,49
5214,17-06-2015 00:00,USELESS LOOP,WA,-26.1322,113.4167,20
5215,18-06-2015 00:00,USELESS LOOP,WA,-26.1322,113.4167,109
5216,18-06-2015 00:00,SHARK BAY,WA,-25.4744,113.4878,59
5217,18-06-2015 00:00,CAREY DOWNS,WA,-25.6114,115.4614,57
5218,18-06-2015 00:00,CARNARVON,WA,-24.8903,113.66,57
5219,17-05-2015 00:00,JINDONG,WA,-33.7411,115.2417,84
5220,17-05-2015 00:00,ACTON PARK,WA,-33.7611,115.3708,79
5221,17-05-2015 00:00,CHAPMAN HILL,WA,-33.8056,115.3331,78
5222,17-05-2015 00:00,CHAPMAN HILL,WA,-33.7783,115.3272,77
5223,17-05-2015 00:00,WHICHER RANGE,WA,-33.8275,115.3889,75
5224,17-05-2015 00:00,Aston Downs Alert,WA,0,0,68
5225,17-05-2015 00:00,LUDLOW,WA,-33.6097,115.4867,62
5226,17-05-2015 00:00,Capel North,WA,0,0,60
5227,17-05-2015 00:00,CAPE LEEUWIN,WA,-34.3767,115.1358,60
5228,17-05-2015 00:00,CAPE NATURALISTE,WA,-33.5314,115.0025,58
5229,18-05-2015 00:00,MARGARET RIVER,WA,-33.955,115.075,107
5230,18-05-2015 00:00,WANNEROO,WA,-31.7472,115.8031,80
5231,18-05-2015 00:00,BUSSELTON SHIRE,WA,-33.6481,115.3458,80
5232,18-05-2015 00:00,KARRAGULLEN,WA,-32.0908,116.1217,61
5233,18-05-2015 00:00,BICKLEY,WA,-32.0081,116.0906,61
5234,18-05-2015 00:00,HUNTLY,WA,-32.5894,116.0625,60
5235,18-05-2015 00:00,ROLEYSTONE,WA,-32.1131,116.0739,57
5236,18-05-2015 00:00,GOSNELLS,WA,-32.0719,115.9947,56
5237,19-06-2015 19:45,JINDONG,WA,-33.7411,115.2417,0
5238,03-07-2015 00:21,WILYABRUP,WA,-33.7956,115.0461,0
5239,19-07-2015 10:32,MYALUP,WA,-33.1019,115.6939,0
5240,19-07-2015 07:31,PEMBERTON,WA,-34.4461,116.0356,0
5241,19-07-2015 00:00,MYALUP,WA,-33.1019,115.6939,91
5242,19-07-2015 00:00,PEMBERTON,WA,-34.4461,116.0356,83
5243,19-07-2015 00:00,ERADU,WA,-28.6958,115.0461,63
5286,12-01-2016 00:00,BEDFORD DOWNS,WA,-17.2614,127.4642,71
5287,06-11-2015 00:00,KONNONGORRING,WA,-31.0425,116.7744,62
5288,06-11-2015 00:00,BERRING,WA,-31.2639,116.91,60
5289,06-11-2015 00:00,MUKINBUDIN,WA,-30.9142,118.2067,58
5290,08-11-2015 00:00,,WA,0,0,0
5291,05-12-2015 00:00,LAKE GRACE,WA,-33.1003,118.4608,75
5292,31-07-2015 00:00,CAPEL RIVER NORTH,WA,-33.6517,115.7514,118
5293,31-07-2015 00:00,COOROW WEST,WA,0,0,95
5294,31-07-2015 00:00,BINDI BINDI,WA,-30.6308,116.3647,94
5295,31-07-2015 00:00,JARRAHWOOD,WA,-33.7961,115.6672,93
5296,31-07-2015 00:00,SOMME CREEK,WA,0,0,90
5297,31-07-2015 00:00,WARRADARGE EAST,WA,0,0,89
5298,31-07-2015 00:00,WATHEROO,WA,-30.2994,116.0592,88
5299,31-07-2015 00:00,BRIDGETOWN,WA,-33.9581,116.1408,86
5300,31-07-2015 00:00,WONGAN HILLS,WA,-30.8936,116.7186,86
5301,31-07-2015 00:00,ENEABBA,WA,-29.8206,115.2708,72
5302,31-07-2015 00:00,BALLIDU,WA,-30.5961,116.7717,70
5303,31-07-2015 00:00,BERKSHIRE VALLEY,WA,-30.5481,116.1358,68
5304,31-07-2015 00:00,JINDONG,WA,-33.7411,115.2417,68
5305,31-07-2015 00:00,CADOUX,WA,-30.7683,117.135,66
5306,31-07-2015 00:00,EJANDING,WA,-31.0147,117.1103,65
5307,31-07-2015 00:00,BUSSELTON AIRFIELD,WA,-33.6761,115.3342,64
5308,31-07-2015 00:00,GREENBUSHES,WA,-33.8617,116.0428,64
5309,31-07-2015 00:00,YOONGARILLUP,WA,-33.7153,115.4267,61
5310,31-07-2015 00:00,COWCOWING,WA,-30.9967,117.4514,60
5311,31-07-2015 00:00,DALWALLINU,WA,-30.2797,116.6611,59
5312,31-07-2015 00:00,KOORDA AERO,WA,0,0,59
5313,31-07-2015 00:00,JURIEN BAY,WA,-30.2972,115.0417,58
5314,31-07-2015 00:00,DONNYBROOK,WA,-33.5767,115.8214,58
5315,31-07-2015 00:00,BARBERTON,WA,-30.7369,116.0286,58
5316,31-07-2015 00:00,YORKRAKINE,WA,-31.4897,117.5536,58
5317,31-07-2015 00:00,KONDUT,WA,-30.7106,116.7736,57
5318,31-07-2015 00:00,VASSE HWY CB3,WA,0,0,57
5319,31-07-2015 00:00,BARBERTON EAST,WA,0,0,56
5320,31-07-2015 00:00,JURENDINE,WA,-31.5767,116.7461,56
5321,31-07-2015 00:00,ROCKY GULLY,WA,-34.5103,117.0264,55
5322,31-07-2015 00:00,YORKRAKINE TBRG,WA,0,0,55
5323,31-07-2015 00:00,PAYNEDALE ALERT,WA,0,0,55
5324,31-07-2015 00:00,CAPE NATURALISTE,WA,-33.5314,115.0025,55
5325,31-07-2015 00:00,COOROW,WA,-29.8822,116.0225,54
5326,31-07-2015 00:00,BENCUBBIN,WA,-30.8108,117.8603,54
5327,31-07-2015 00:00,MUKINBUDIN AERO,WA,0,0,54
5328,31-07-2015 00:00,WIALKI,WA,-30.4767,118.1211,54
5329,31-07-2015 00:00,EJANDING,WA,-31.0147,117.1103,54
5330,31-07-2015 00:00,WYALKATCHEM,WA,-31.1772,117.3833,52
5331,31-07-2015 00:00,PORONGURUP SOUTH,WA,0,0,51
5332,31-07-2015 00:00,NARRIKUP WEST,WA,0,0,50
5333,31-07-2015 00:00,MINDALLA,WA,0,0,76
5334,31-07-2015 00:00,ANRO,WA,0,0,75
5335,31-07-2015 00:00,HILL RIVER SPRING,WA,-30.2719,115.3717,63
5336,31-07-2015 00:00,NARDY ROAD,WA,0,0,62
5337,31-07-2015 00:00,STYLES TOWER,WA,0,0,62
5338,31-07-2015 00:00,RAVENSCLIFFE ALERT,WA,0,0,59
5339,31-07-2015 00:00,NEWBICUP,WA,0,0,58
5340,31-07-2015 00:00,HAPPY VALLEY,WA,-33.6964,115.6256,58
5341,31-07-2015 00:00,LONG POOL,WA,-33.6964,115.6256,54
5342,31-07-2015 00:00,AMERY ACRES,WA,0,0,50
5343,31-07-2015 00:00,WESTBOURNE,WA,-31.9983,116.8594,74
5344,02-07-2015 08:21,WILYABRUP,WA,-33.7956,115.0461,0
5345,02-07-2015 10:21,WILYABRUP,WA,-33.7956,115.0461,0
5346,01-08-2015 00:00,DRAGON ROCKS,WA,-32.8133,119.0328,68
5347,01-08-2015 00:00,HOWATHARRA,WA,-28.5322,114.6347,59
5348,01-08-2015 00:00,SOUTHERN CROSS AIRFIELD,WA,0,0,53
5349,01-08-2015 00:00,AMRISTA PARK,WA,0,0,59
5350,01-08-2015 00:00,YANGEDINE,WA,-32.0308,116.8742,53
5351,01-08-2015 00:00,ARUBIDDY,WA,-31.8092,125.9253,52
5352,01-08-2015 00:00,FORT HILL,WA,0,0,55
5353,06-11-2015 00:00,BEDFORD DOWNS AIRSTRIP,WA,0,0,71
5354,06-11-2015 00:00,SPRING VALLEY,WA,-28.7222,114.7642,123
5355,22-12-2015 00:00,MORAWA AIRPORT,WA,0,0,54
5356,09-01-2016 00:00,MOUNT WESTDALE,WA,0,0,0
5357,09-01-2016 00:00,DARKAN,WA,-33.3378,116.7433,0
5358,09-01-2016 00:00,BULLILUP,WA,0,0,0
5359,09-01-2016 00:00,MANYWATERS,WA,0,0,0
5360,19-01-2016 00:00,MANYWATERS,WA,0,0,90
5361,19-01-2016 00:00,NANNUP,WA,-33.9819,115.765,90
5362,19-01-2016 00:00,QUABICUP HILL,WA,-34.3367,116.4442,87
5363,19-01-2016 00:00,DURANILLIN,WA,-33.5064,116.7739,86
5364,19-01-2016 00:00,STYLES TOWER,WA,0,0,0
5365,19-01-2016 00:00,MOODIARUP TM,WA,0,0,81
5366,19-01-2016 00:00,CORBALLUP ROAD,WA,0,0,80
5367,19-01-2016 00:00,PEMBERTON,WA,-34.4461,116.0356,73
5368,19-01-2016 00:00,WARNER GLEN,WA,-34.1272,115.2108,72
5369,19-01-2016 00:00,KARRI VALLEY RESORT,WA,0,0,71
5370,19-01-2016 00:00,WICKEPIN SOUTH,WA,0,0,63
5371,19-01-2016 00:00,RAVENSCLIFFE ALERT,WA,0,0,53
5372,19-01-2016 00:00,MANDALAY,WA,-34.5322,117.2847,52
5373,19-01-2016 00:00,THOMSON BROOK,WA,-33.5636,115.8811,52
5374,10-02-2013 07:50,STANTHORPE,QLD,-28.6548,151.935,0
5375,23-02-2013 05:46,MUSKET FLAT,QLD,-25.5,152.35,0
5376,24-02-2013 00:00,BOWEN,QLD,-20.0104,148.2416,0
5377,24-02-2013 17:30,EMU PARK,QLD,-23.2593,150.8238,0
5378,04-03-2013 04:08,MAREEBA,QLD,-17.046,145.5025,0
5379,14-03-2013 00:55,CALINGUNEE,QLD,-27.9987,150.3325,0
5380,15-03-2013 23:40,RATHDOWNEY,QLD,-28.2115,152.8633,0
5381,15-03-2013 23:40,RATHDOWNEY,QLD,-28.2115,152.8633,0
